City,Region,tif_count,Latitude,Longitude,Elevation
Aalborg,EUROPE,161,57.04032091,9.929244306,6.118811965
Aarhus,EUROPE,273,56.16968864,10.1760989,14.024
Aba,AFRICA,327,5.088379205,7.334607543,76.9263266
Abadan,ASIA,59.99999999,30.34569444,48.27458333,3.509
Abaetetuba,SOUTH AMERICA,12,-1.71875,-48.88125,19.204
Abai,SOUTH AMERICA,4.000000002,-26.0375,-55.94583333,237.94
Abakan,ASIA,93,53.72213262,91.43396057,353.622
Abancay,SOUTH AMERICA,14,-13.63035714,-72.88928571,3641.233
Abau,MELANESIA,1,-10.04166667,148.5583333,14.525
Abaza,ASIA,19,52.65263158,90.09035088,1035.208
Abbottabad,ASIA,759.5490645,34.07187504,73.08325765,1582.6627
Abeche,AFRICA,14,13.83869048,20.82916667,482.531
Abengourou,AFRICA,48,6.7375,-3.494444444,163.171
Abeokuta,AFRICA,288,7.125028935,3.329311343,170.2160083
Aberdeen1,NORTH AMERICA,39,45.46837607,-98.48098291,418.723
Aberdeen2,NORTH AMERICA,52,46.97836538,-123.8415064,188.9098941
Aberdeen3,EUROPE,163,57.15884458,-2.139366053,105.735
Abha,ASIA,43.99999999,18.22140152,42.50435606,1671.203
Abidjan,AFRICA,557,5.378067026,-4.024012567,50.63654847
Abilene,NORTH AMERICA,138,32.43967391,-99.76521739,518.907
Abohar,ASIA,1250.599139,30.33159998,74.33190505,193.4359555
Abomey,AFRICA,1421.624684,6.871765315,1.891243285,65.03368045
Abong Mbang,AFRICA,2,3.991666667,13.17083333,694.017
Abra Pampa,SOUTH AMERICA,6,-22.71805556,-65.70138889,3707.566
Abu Dhabi,ASIA,123,24.44850949,54.40650406,18.492
Abu Kamal,ASIA,93,34.50134409,40.91550179,292.187
Abuja,AFRICA,206,9.067354369,7.480218447,540.456766
Acapulco,NORTH AMERICA,160,16.88692708,-99.84317708,59.814
Acarau,SOUTH AMERICA,4,-2.877083333,-40.12291667,3.412
Acarigua,SOUTH AMERICA,82,9.569308943,-69.21199187,617.451
Acatlan,NORTH AMERICA,6.999999998,18.20595238,-98.0547619,1433.058
Accra,AFRICA,747,5.64505801,-0.179774654,61.58809103
Achinsk,ASIA,102,56.26405229,90.47426471,241.241
Acu,SOUTH AMERICA,7.000000001,-5.575,-36.91428571,112.686
Ad Dakhla,AFRICA,17,23.70245098,-15.94313725,130.388
Ad Damman,ASIA,404,26.39366749,50.10796205,6.67344555
Ad Diwaniyah,ASIA,57,31.99327485,44.92207602,63.51837722
Ad Nabk,ASIA,21,34.03253968,36.72777778,899.087
Adana,ASIA,245,37.0064966,35.32170068,478.0393684
Adapazari,ASIA,167,40.7500499,30.38877246,537.179
Addis Ababa,AFRICA,1399,8.713908744,39.02709078,2027.389828
Adelaide,AUSTRALIA,946,-34.90715292,138.5908915,113.6496744
Aden,ASIA,42,12.80119048,45.01587302,11.81984525
Adi Ugri,AFRICA,302.9569378,14.87415567,38.81488987,1558.551322
Adigrat,AFRICA,40.00000001,14.26166667,39.47854167,1733.47
Adiyaman,ASIA,135,37.7604321,38.26777778,699.121
Ado Ekiti,AFRICA,1804.388462,7.71137203,5.114628701,355.5956689
Adrar,AFRICA,36,27.87060185,-0.29375,231.035
Afyon,ASIA,84.00000001,38.76170635,30.5594246,1237.62
Agadez,AFRICA,39,16.98760684,7.985470085,508.3094948
Agadir,AFRICA,165,30.3970202,-9.554393939,376.438
Agana,MICRONESIA,69.99999999,13.48833333,144.7880952,4.523
Agartala,ASIA,5002.963516,24.05085027,91.18712181,31.32366522
Agboville,AFRICA,34,5.93872549,-4.21127451,43.036
Agen,EUROPE,80,44.19947917,0.6290625,110.904
Agordat,AFRICA,10,15.54833333,37.87666667,726.258
Agra,ASIA,4265.955724,27.17591377,78.14189821,179.7594017
Agri,ASIA,38.00000001,39.72587719,43.03991228,2157.623487
Agrinio,EUROPE,46,38.62952899,21.39728261,380.013
Agua Prieta,NORTH AMERICA,55,31.33636364,-109.5469697,1437.891
Aguascalientes,NORTH AMERICA,181,21.90529466,-102.2987569,1902.048
Ahar,ASIA,20,38.48333333,47.06458333,1689.891
Ahmadabad,ASIA,8259.250416,22.96249316,72.7043873,68.45753837
Ahmednagar,ASIA,150,19.10783333,74.747,604.865
Ahwaz,ASIA,267,31.31382647,48.66719725,25.814
Aigua,SOUTH AMERICA,4.000000001,-34.19791667,-54.76666667,81.385
Aiken,NORTH AMERICA,91.00000001,33.54432234,-81.7253663,102.343
Aiquile,SOUTH AMERICA,4.000000001,-18.19375,-65.18333333,2798.649
Aix-en-Provence,EUROPE,95,43.53394737,5.419122807,255.694
Aizawl,ASIA,49.99999999,23.71,92.71316667,418.738
Ajaccio,EUROPE,62,41.94112903,8.747849462,35.356
Ajdabiya,AFRICA,22.00000001,30.76363636,20.22121212,35.693
Ajmer,ASIA,207,26.46654589,74.65873591,402.178
Aketi,AFRICA,17,2.739705882,23.77696078,458.478
Akhtubinsk,EUROPE,32,48.28151042,46.1640625,11.646
Akita,ASIA,151,39.73432671,140.094702,382.107
Akola,ASIA,215,20.70515504,76.98755814,401.308521
Akron,NORTH AMERICA,848.7085322,41.10650009,-81.49852075,267.9733081
Aksu,ASIA,80,41.174375,80.265625,2017.333
Aksum,AFRICA,27,14.11018519,38.74228395,1621.225
Akureyi,NORTH AMERICA,29,65.68764368,-18.11264368,679.264
Al Ahmadi,ASIA,18,29.09490741,48.06574074,2.795
Al Amarah,ASIA,81,31.8505144,47.14814815,8.881
Al Ayn,ASIA,194,24.19621993,55.72495704,203.902
Al Bayda,AFRICA,1,32.75833333,21.625,344.327
Al Fallujah,ASIA,33,33.35429293,43.7780303,61.333
Al Fujayrah,ASIA,37.00000001,25.1045045,56.34076577,151.204
Al Hasakah,ASIA,47.99999999,36.50815972,40.74305556,386.38
Al Hillah,ASIA,151,32.48576159,44.4044702,33.119
Al Hudaydah,ASIA,104,14.80184295,42.9869391,233.4002835
Al Hufuf,ASIA,121,25.39676309,49.57114325,180.143
Al Jaghbub,AFRICA,1,29.75,24.51666667,61.671
Al Jahra,ASIA,53.00000001,29.33144654,47.67940252,117.294
Al Jawf,AFRICA,19,24.21973684,23.2877193,408.382
Al Jubayl,ASIA,47.00000001,26.99485816,49.64503546,35.09088832
Al Karak,ASIA,88,31.14905303,35.71751894,400.928
Al Khalil,ASIA,145,31.52885057,35.10528736,400.928
Al Kharj,ASIA,66,24.15315657,47.31691919,514.511
Al Khums,AFRICA,15,32.65055556,14.25944444,67.551
Al Kut,ASIA,44,32.51742424,45.81818182,19.81
Al Ladhiqiyah,ASIA,192,35.56289062,35.81662326,23.196
Al Marj,AFRICA,21,32.49325397,20.82857143,130.561
Al Mubarraz,ASIA,62.46409391,25.43128152,49.56150048,180.143
Al Mukalla,ASIA,32,14.55286458,49.12760417,112.318
Al Musayyib,ASIA,44,32.78617424,44.28844697,33.119
Al Qamishli,ASIA,30.87418403,37.04648869,41.23649736,783.018
Al Qunaytirah,ASIA,8.999999993,33.125,35.81666667,540.302
Al Quwayiyah,ASIA,17,24.07107843,45.27647059,735.93
Al Wajh,ASIA,9.999999999,26.25,36.45333333,151.57
Al-Qatif,ASIA,74.12223642,26.52680849,50.00241716,28.82534875
Alagoinhas,SOUTH AMERICA,22,-12.1280303,-38.43333333,100.505
Alajuela,SOUTH AMERICA,176.4001031,9.993275953,-84.2242608,321.8158168
Alamogordo,NORTH AMERICA,35,32.91071429,-105.9528571,1676.24
Alapayevsk,ASIA,53.00000001,57.85471698,61.68867925,196.694
Alatyr,EUROPE,33.00000001,54.84494949,46.575,173.528
Alayat Samail,ASIA,9.999999999,23.30333333,57.96583333,548.962
Albacete,EUROPE,55.99999999,38.99806548,-1.878571429,717.3067356
Albany1,NORTH AMERICA,178,31.59321161,-84.17228464,85.047
Albany2,NORTH AMERICA,452.1555382,42.71179648,-73.75774394,279.232
Albany3,NORTH AMERICA,73,44.63424658,-123.0950913,231.415
Albany4,AUSTRALIA,26,-35.00544872,117.8714744,67.57533649
Albert Lea,NORTH AMERICA,35,43.65571429,-93.37119048,364.063
Albuquerque,NORTH AMERICA,744,35.14115143,-106.6345206,1978.829
Albury,AUSTRALIA,49,-36.06088435,146.9219388,381.245
Aldama,NORTH AMERICA,5.999999999,22.925,-98.07916667,78.877
Aldan,ASIA,31,58.61854839,125.3768817,767.466
Aleksandrovsk,ASIA,18,50.90092593,142.1550926,266.064
Alekseyevka,EUROPE,32,50.63463542,38.68385417,168.468
Aleksin,EUROPE,56,54.51279762,37.06145833,200.5928214
Aleppo,ASIA,291,36.21317297,37.16033792,497.222
Alexandria1,NORTH AMERICA,134,31.31511194,-92.45273632,46.736
Alexandria2,NORTH AMERICA,1421.829432,38.87768146,-77.26798415,99.31538268
Alexandria3,AFRICA,495,31.19656566,30.01159933,0.1885
Alexandroupoli,EUROPE,26,40.85865385,25.88621795,28.519
Aleysk,ASIA,37,52.49369369,82.76756757,216.534
Algeciras,EUROPE,56.11564247,36.15517481,-5.451779006,261.183
Algha,ASIA,20,49.90916667,57.32166667,296.548
Algiers,AFRICA,1850,36.66834234,3.090941441,406.6714724
Ali Bayramli,ASIA,27,39.94938272,48.92376543,74.295
Ali Sabih,AFRICA,8.000000001,11.15625,42.70104167,485.233
Alicante,EUROPE,181,38.39263352,-0.490699816,316.143
Alice,NORTH AMERICA,31,27.75698925,-98.07768817,136.864
Alice Springs,AUSTRALIA,30,-23.69416667,133.8711111,682.813
Aligarh,ASIA,10141.30124,27.99065524,78.15303603,187.0950413
Alipur Duar,ASIA,6879.15195,26.39426687,89.80527557,278.5595235
Aliwal North,AFRICA,12,-30.69305556,26.70972222,1447.143
Allahabad,ASIA,9655.722996,25.3328607,81.70000838,168.5054251
Allanmyo,ASIA,18.99999998,19.35701754,95.21359649,186.27
Allappey,ASIA,2412.914575,9.533485,76.52756457,86.583
Allende,NORTH AMERICA,13,28.34615385,-100.8525641,288.658
Allentown,NORTH AMERICA,636,40.63535115,-75.41198899,180.988
Alliance,NORTH AMERICA,18,42.10740741,-102.8787037,1165.887
Almaty,ASIA,506,43.28183465,76.89856719,909.0511067
Almenara,SOUTH AMERICA,12,-16.17222222,-40.69583333,488.657
Almeria,EUROPE,53.99999999,36.86064815,-2.446296296,114.98
Almetyevsk,EUROPE,80,54.90739583,52.315,235.779
Almirante,SOUTH AMERICA,5,9.303333333,-82.40166667,327.393
Alor Setar,ASIA,285,6.112865497,100.3709649,98.38376526
Alotau,MELANESIA,4.999999998,-10.305,150.445,81.93
Alpena,NORTH AMERICA,41,45.06971545,-83.45792683,188.737
Alpine,NORTH AMERICA,13,30.36474359,-103.6653846,1297.945
Alta Gracia,SOUTH AMERICA,22,-31.65151515,-64.42992424,972.741
Altagracia de Orituco,SOUTH AMERICA,17,9.866176471,-66.375,260.808
Altamira,SOUTH AMERICA,7.000000001,-3.194047619,-52.21428571,160.749
Altay,ASIA,13.00091561,47.85448724,88.12307776,1064.01
Alton,NORTH AMERICA,145,38.90270115,-90.13132184,178.184
Altoona,NORTH AMERICA,112,40.48779762,-78.40729167,502.53
Alvorada,SOUTH AMERICA,1,-12.475,-49.125,260.468
Alwar,ASIA,1889.953245,27.57951241,76.87086541,305.8225991
Alxa Zuoqi,ASIA,8.000000001,38.83645833,105.6645833,1476.053
Am Timan,AFRICA,12,11.03402778,20.28402778,457.27
Amahai,MELANESIA,3.999999996,-3.33125,128.9145833,137.421
Amapa,SOUTH AMERICA,4.000000001,2.054166667,-50.79583333,3.398
Amarillo,NORTH AMERICA,204,35.19677288,-101.8606618,1009.076
Amasya,ASIA,24,40.66111111,35.82291667,965.235
Ambala,ASIA,2711.7969,30.29573647,76.91802454,526.5112425
Ambanja,AFRICA,6.000000001,-13.6625,48.44861111,191.282
Ambato,SOUTH AMERICA,139.7942212,-1.248856486,-78.60411735,2965.888
Ambatondrazaka,AFRICA,12,-17.82291667,48.41527778,884.459
Ambon,MELANESIA,35.99999999,-3.67962963,128.1891204,137.421
Amderma,EUROPE,1,69.76666667,61.65833333,96.529
Americana,SOUTH AMERICA,382.9709453,-22.77413959,-47.32814476,633.866
Ames,NORTH AMERICA,62,42.02983871,-93.64596774,337.1640451
Amherst,NORTH AMERICA,16,45.83072917,-64.21197917,72.643
Amiens,EUROPE,126,49.89398148,2.296560847,96.801
Amman,ASIA,748,31.96193182,35.93147282,483.532472
Ammochostos,ASIA,33,35.12929293,33.92045455,60.282
Amol,ASIA,112,36.47782738,52.34933036,566.944
Amos,NORTH AMERICA,18,48.58009259,-78.11898148,314.016
Amravati,ASIA,183,20.93278689,77.74899818,370.5284787
Amritsar,ASIA,29322.12817,31.54294832,75.41465308,369.6048748
Amsterdam,EUROPE,569,52.3559754,4.863429994,-0.207702988
Amursk,ASIA,23,50.23695652,136.8942029,333.774
An Najaf,ASIA,176,32.01780303,44.37954545,47.45530655
An Nasiriyah,ASIA,70,31.05666667,46.24630952,7.442
Anaco,SOUTH AMERICA,51,9.438235294,-64.46846405,225.017
Anapolis,SOUTH AMERICA,131,-16.33008906,-48.95184478,931.1520801
Anatuya,SOUTH AMERICA,14,-28.45357143,-62.83809524,101.778
Anbyon,ASIA,7,39.04880952,127.5178571,176.36
Anchorage,NORTH AMERICA,402,61.17327944,-149.8504353,522.938
Ancona,EUROPE,90.00000001,43.55,13.51314815,127.697
Ancud,SOUTH AMERICA,17,-41.87598039,-73.81519608,91.091
Anda,ASIA,138,46.43218599,125.2589372,159.415
Anderson,NORTH AMERICA,125,34.52346667,-82.66973333,226.545
Andijon,ASIA,1072,40.73714241,72.21291978,1187.982778
Andkhvoy,ASIA,60.00000001,36.93472222,65.09666667,574.075
Andoany,AFRICA,9.999999996,-13.39166667,48.26333333,191.282
Andong,ASIA,41,36.57052846,128.7245935,278.44
Andorra,EUROPE,36.99999999,42.5222973,1.531306306,1374.343
Andradina,SOUTH AMERICA,35,-20.89761905,-51.38071429,360.354
Androka,AFRICA,1.000000002,-25.025,44.075,25.672
Angangxi,ASIA,26.99999999,47.16080247,123.8117284,179.74
Angarsk,ASIA,181,52.5575046,103.8908379,562.467
Angeles,MALAY ARCHIPELAGO,1607.477916,15.05884942,120.6617532,160.9403311
Angers,EUROPE,224,47.46595982,-0.552008929,66.43
Angoche,AFRICA,28,-16.1985119,39.92321429,35.277
Angol,SOUTH AMERICA,21.99999999,-37.80113636,-72.7030303,239.581
Angra do Heroismo,EUROPE,5.999999998,38.6625,-27.225,17.026
Angren,ASIA,112,41.01837798,70.08497024,1931.92934
Ankang,ASIA,828,32.7889996,108.7868961,943.268858
Ankara,ASIA,810,39.96205761,32.74927984,1071.933451
Anlu,ASIA,1212.91555,31.24143065,113.6847569,137.9113185
Ann Arbor,NORTH AMERICA,328,42.25160061,-83.68958333,252.269
Anna Regina,SOUTH AMERICA,6.000000004,7.270833333,-58.48611111,8.771
Annaba,AFRICA,166,36.85055221,7.742319277,465.841
Annapolis,NORTH AMERICA,94.00000001,38.97828014,-76.52712766,31.72972337
Annecy,EUROPE,132,45.92556818,6.100063131,1700.543
Anqing,ASIA,177,30.5606403,117.0360169,175.825017
Ansan,ASIA,525.9219283,37.38732762,126.8430915,26.864
Anshan,ASIA,1428.052935,41.20761093,123.0334893,90.63394281
Anshun,ASIA,884,26.23429487,105.7977847,1489.844529
Antalaha,AFRICA,8.000000011,-14.9,50.27395833,15.94
Antalya,ASIA,286,36.90463287,30.71051865,422.903
Antananarivo,AFRICA,864,-18.87130594,47.47254051,1315.911553
Antigonish,NORTH AMERICA,16,45.62291667,-61.996875,72.81825003
Antofagasta,SOUTH AMERICA,62,-23.62325269,-70.39758065,378.096
Antsirabe,AFRICA,354,-19.86640772,47.1461629,1487.481413
Antsiranana,AFRICA,25,-12.29566667,49.288,108.988
Antsohihy,AFRICA,4,-14.875,47.98541667,19.219
Antwerpen,EUROPE,1365.173988,51.14656345,4.529922517,16.08578744
Anuradhapura,ASIA,131,8.324300254,80.41221374,85.532
Anxi,ASIA,16,40.52604167,95.778125,1336.224
Anyang,ASIA,2525.694958,36.12551649,114.4531687,119.9803677
Anzhero Sudzhensk,ASIA,101,56.08985149,86.0269802,167.6153465
Aomori,ASIA,147,40.83407029,140.7349773,280.715
Apalachicola,NORTH AMERICA,6.000000001,29.72916667,-85,1.0585
Apatity,EUROPE,68,67.58370098,33.40220588,252.603
Apatzingan,NORTH AMERICA,27,19.09444444,-102.3583333,1403.763
Apia,POLYNESIA,47.00000001,-13.83368794,-171.7852837,22.941
Apodi,SOUTH AMERICA,0.999999999,-5.658333333,-37.8,111.354
Apolo,SOUTH AMERICA,4,-14.7125,-68.42083333,1627.334
Appleton,NORTH AMERICA,311.8951695,44.25426041,-88.41092179,249.789
Apsheronsk,EUROPE,43,44.46143411,39.72344961,323.851
Apucarana,SOUTH AMERICA,55,-23.54272727,-51.45545455,573.122
Aqadyr,ASIA,5,48.27,72.86,664.606
Aqsay,ASIA,17,51.1745098,52.99460784,94.4602941
Aqtau,ASIA,7,43.63571429,51.23452381,-2.558
Aqtobe,ASIA,96,50.29444444,57.18559028,324.727
Aquidauana,SOUTH AMERICA,42,-20.46686508,-55.79325397,252.668
Ar Ramadi,ASIA,72,33.43310185,43.29282407,61.333
Ar Raqqah,ASIA,55,35.95636364,39.00924242,398.1347182
Ar Rutbah,ASIA,10,33.04166667,40.27916667,547.5
Aracaju,SOUTH AMERICA,243,-10.89883402,-37.10967078,200.3413765
Aracati,SOUTH AMERICA,6,-4.558333333,-37.77083333,12.887
Aracatuba,SOUTH AMERICA,79,-21.2021097,-50.44694093,412.923
Aracuai,SOUTH AMERICA,13,-16.85192308,-42.06858974,682.586
Arad,EUROPE,86.00000001,46.18391473,21.3119186,122.297
Araguaina,SOUTH AMERICA,17,-7.183333333,-48.20931373,243.875
Araguari,SOUTH AMERICA,49.99999999,-18.64466667,-48.19383333,714.877
Arak,ASIA,92.99999998,34.08960573,49.68862007,1872.942
Aral,ASIA,23,46.80543478,61.6576087,67.783
Aranyaprathet,ASIA,11,13.69469697,102.4977273,92.862
Arapiraca,SOUTH AMERICA,22,-9.738257576,-36.67121212,299.614
Arapongas,SOUTH AMERICA,54.99999999,-23.40287879,-51.43727273,573.122
Arar,ASIA,33,30.98181818,41.0229798,526.8564274
Ararangua,SOUTH AMERICA,40,-28.93395833,-49.49791667,559.78
Ararat,AUSTRALIA,15,-37.28,142.9227778,265.112
Arauca,SOUTH AMERICA,12,7.079861111,-70.75972222,120.519
Araxa,SOUTH AMERICA,38,-19.5877193,-46.94210526,1015.377
Arba Minch,AFRICA,36,6.052083333,37.57569444,1584.289
Arcata,NORTH AMERICA,30,40.88194444,-124.0855556,72.275
Archangel,EUROPE,319,64.55535528,40.57850052,38.312
Arcoverde,SOUTH AMERICA,14,-8.413095238,-37.05654762,554.929
Arctic Bay,NORTH AMERICA,1,73.04166667,-85.175,125.805
Ardabil,ASIA,78.99999999,38.26065401,48.28101266,1016.991
Ardmore,NORTH AMERICA,39,34.18205128,-97.14337607,309.744
Arecibo,SOUTH AMERICA,87,18.44521073,-66.76561303,146.506
Arequipa,SOUTH AMERICA,165,-16.3929798,-71.53323232,2750.181
Arezzo,EUROPE,62,43.4719086,11.85900538,395.135
Argentia,NORTH AMERICA,5.000000001,47.31333333,-53.99333333,84.75619999
Arica,SOUTH AMERICA,41,-18.47317073,-70.29512195,271.676
Arjona,SOUTH AMERICA,15,10.26333333,-75.35333333,24.133
Armavir,EUROPE,94.00000001,45.00868794,41.1143617,326.3623928
Armenia,SOUTH AMERICA,42,4.547420635,-75.68134921,2001.454
Armidale,AUSTRALIA,28.00000001,-30.50625,151.6571429,995.726
Arqalyq,ASIA,34,50.25955882,66.90318627,288.319
Arras,EUROPE,90.99999999,50.29413919,2.768956044,72.043
Arrecife,AFRICA,35,28.97714286,-13.57309524,15.12806429
Arroyos y Esteros,SOUTH AMERICA,1.999999999,-25.05,-57.10416667,96.547
Arsenyev,ASIA,31.99999999,44.16145833,133.2695312,262.227
Artemisa,NORTH AMERICA,23,22.82137681,-82.76594203,20.599
Artemovsk,ASIA,13,54.35448718,93.43461538,753.336
Artemovskiy,ASIA,35,57.35904762,61.88404762,196.694
Artigas,SOUTH AMERICA,10,-30.41083333,-56.48,163.833
Arua,AFRICA,735,3.136247166,30.87451247,1056.573598
Arusha,AFRICA,34,-3.366911765,36.68161765,1279.233
Arvayheer,ASIA,20,46.2725,102.7708333,1996.41
Arviat,NORTH AMERICA,1,61.10833333,-94.05833333,49.323
Arxan,ASIA,8.999999999,47.175,119.9333333,939.771
Arys,ASIA,31.99999999,42.42994792,68.79765625,230.386
Arzamas,EUROPE,91.99999999,55.41059783,43.81902174,154.378
As Salt,ASIA,27,32.05092593,35.72222222,301.79
As Samawah,ASIA,71.00000001,31.32323944,45.27441315,14.112
As Sulaymaniyah,ASIA,68.00000001,35.56887255,45.41887255,992.654
As Sulayyil,ASIA,8.999999998,20.46759259,45.56296296,666.888
As Suwayda,ASIA,34,32.7120098,36.57107843,840.072
Asahikawa,ASIA,187,43.7872549,142.3807932,533.004
Asbest,ASIA,69,57.0134058,61.46521739,199.6302196
Ascension,NORTH AMERICA,10,31.09833333,-108,1386.0075
Asela,AFRICA,30,7.963611111,39.13166667,2564.42333
Ash Shatrah,ASIA,39,31.4258547,46.16217949,7.442
Ash Shihr,ASIA,13,14.76858974,49.60384615,112.318
Asha,EUROPE,53,55.00314465,57.24669811,390.2380765
Ashburton1,POLYNESIA,18.30650064,-43.8923573,171.7534022,707.463
Ashburton2,POLYNESIA,0.693499362,-43.87343572,171.7322902,707.463
Asheville,NORTH AMERICA,291,35.56998855,-82.56620848,746.833
Ashgabat,ASIA,189,37.95163139,58.36141975,1263.767507
Asino,ASIA,24,56.99895833,86.1375,151.5775125
Asmara,AFRICA,109,15.33157492,38.92270642,1403.746
Asosa,AFRICA,9.999999997,10.065,34.53916667,876.939
Assab,AFRICA,13,13.01282051,42.73461538,125.7045809
Assis,SOUTH AMERICA,81,-22.64876543,-50.42294239,458.592
Astana,ASIA,193,51.16860967,71.42858377,358.878
Asti,EUROPE,40.99999999,44.90894309,8.209756098,265.202
Astoria,NORTH AMERICA,15,46.18833333,-123.8372222,177.89
Astrakhan,EUROPE,237,46.35488748,48.01754571,-22.8353038
Asuncion,SOUTH AMERICA,840,-25.31444444,-57.50554563,96.547
Aswan,AFRICA,72.99999999,24.09006849,32.88732877,287.778
Asyut,AFRICA,801.0000001,27.44994798,30.94508947,197.7657865
At Bashy,ASIA,27,41.16574074,75.80555556,2661.087
At Taif,ASIA,105,21.29277778,40.41888889,1252.67
Atakpame,AFRICA,29,7.535057471,1.117528736,178.822
Atamyrat,ASIA,27,37.82716049,65.19722222,274.793
Atar,AFRICA,11,20.52121212,-13.05530303,198.019
Atasu,ASIA,25,48.68633333,71.64266667,528.006
Atbara,AFRICA,38,17.71754386,33.98618421,411.1898421
Atbasar,ASIA,36,51.81550926,68.34884259,308.538
Athabasca,NORTH AMERICA,4.000000003,54.725,-113.2875,647.343
Athens1,NORTH AMERICA,186,33.94144265,-83.39816308,195.6048777
Athens2,EUROPE,752,38.03231383,23.72494459,167.6998045
Atherton,AUSTRALIA,7.999999999,-17.2625,145.4739583,576.789
Ati,AFRICA,4.000000001,13.21875,18.33333333,340.321
Atikokan,NORTH AMERICA,16,48.7671875,-91.61927083,429.327
Atkarsk,EUROPE,21,51.8797619,44.9968254,188.324
Atlanta,NORTH AMERICA,5733,33.86637595,-84.3521353,306.0464444
Atlantic City,NORTH AMERICA,44,39.35833333,-74.46496212,12.912
Atlixco,NORTH AMERICA,36,18.91712963,-98.43773148,1433.058
Atoyac,NORTH AMERICA,9.000000002,17.21851852,-100.437963,1043.017
Atyrau,ASIA,87,47.10354406,51.90775862,-23.244
Auburn,NORTH AMERICA,114,32.6253655,-85.43969298,156.163
Auckland,POLYNESIA,585,-36.91858974,174.7917949,32.72338462
Augsburg,EUROPE,268,48.37282338,10.88650498,517.166209
Augusta1,NORTH AMERICA,451,33.47030673,-82.05685514,128.3874235
Augusta2,NORTH AMERICA,41,44.3203252,-69.78739837,93.703
Aurangabad1,ASIA,2514.305501,24.7468726,84.39528766,187.4101295
Aurangabad2,ASIA,446,19.8759716,75.29893498,518.3
Aurora1,NORTH AMERICA,540.2429107,39.66369122,-104.835058,1822.869
Aurora2,NORTH AMERICA,2116.853481,41.84433863,-88.19995947,220.9243756
Austin,NORTH AMERICA,1044,30.36375319,-97.7548212,196.353
Autlan,NORTH AMERICA,17,19.77598039,-104.370098,638.589
Auxerre,EUROPE,52,47.82035256,3.5625,240.695
Avare,SOUTH AMERICA,54,-23.09290123,-48.92978395,665.48
Aweil,AFRICA,8.000000003,8.766666667,27.39583333,454.991
Awka,AFRICA,773.3746498,6.131929098,7.068519257,142.2219357
Ayacucho,SOUTH AMERICA,30.99999999,-13.15913978,-74.22231183,3998.682
Ayakoz,ASIA,28,47.96934524,80.43065476,644.156
Ayapel,SOUTH AMERICA,9.000000001,8.325,-75.1537037,59.015
Ayaviri,SOUTH AMERICA,5.000000001,-14.87666667,-70.595,4369.741
Aydin,ASIA,159,37.85089099,27.80597484,205.857
Ayorou,AFRICA,3.000000003,14.73888889,0.913888889,267.773
Ayounel el Atrous,AFRICA,2,16.6625,-9.625,195.907
Ayr1,EUROPE,56,55.46696429,-4.623958333,164.065
Ayr2,AUSTRALIA,12,-19.56597222,147.4055556,18.54
Ayutthaya,ASIA,78,14.36111111,100.582906,18.782
Az Aubayr,ASIA,76,30.38673246,47.70164474,20.258
Az Zahran,ASIA,175.6969221,26.31767384,50.16461116,1.696
Az Zarqa,ASIA,138.5480101,32.06995374,36.08127779,837.3181585
Az Zawiyah,AFRICA,58,32.76666667,12.70043103,137.974
Azare,AFRICA,25,11.68,10.192,416.465
Azogues,SOUTH AMERICA,71.97998246,-2.741058949,-78.86897401,2455.907
Azul,SOUTH AMERICA,40,-36.77645833,-59.86666667,88.014
Babahoyo,SOUTH AMERICA,30,-1.7925,-79.52277778,428.323
Babanusa,AFRICA,14,11.33214286,27.80654762,459.434
Babati,AFRICA,4.999999999,-4.206666667,35.74166667,1546.308
Babruysk,EUROPE,121,53.15061983,29.20475207,161.393
Bac Giang,ASIA,1840.673624,21.19598259,106.1901353,175.1030653
Bac Lieu,ASIA,1256.133746,9.431902295,105.7588642,1.344923538
Bacabal,SOUTH AMERICA,13,-4.220512821,-44.78974359,73.732
Bacau,EUROPE,103,46.56674757,26.88972492,600.112
Bacolod,MALAY ARCHIPELAGO,389.2883076,10.7019943,122.9888528,107.9949313
Badajoz,EUROPE,68.99999999,38.86183575,-6.970772947,387.8317536
Baddeck,NORTH AMERICA,4,46.10416667,-60.75833333,144.07
Badulla,ASIA,512.8189199,6.92548508,80.9297765,281.6880861
Bafang,AFRICA,22,5.164772727,10.1844697,1212.567
Bafata,AFRICA,21,12.18293651,-14.66309524,47.595
Bafia,AFRICA,6.999999998,4.752380952,11.22380952,543.639
Bafoussam,AFRICA,1041.175449,5.505880149,10.32079139,1212.567
Bafra,ASIA,79,41.57848101,35.88154008,467.629
Bagamoyo,AFRICA,1.000000002,-6.441666667,38.89166667,171.851
Bage,SOUTH AMERICA,65,-31.31794872,-54.10897436,180.065
Baghdad,ASIA,819,33.33686406,44.39760887,39.099
Baghlan,ASIA,168,36.20441468,68.76269841,785.654
Bago,ASIA,64,17.34518229,96.48502604,44.649
Baguio City,MALAY ARCHIPELAGO,108,16.42523148,120.5945988,552.979
Bahawalpur,ASIA,3555.193059,29.6095336,71.75151505,120.2544494
Bahia Blanca,SOUTH AMERICA,208,-38.71850962,-62.26414263,130.834
Bahir Dar,AFRICA,61.00000001,11.54672131,37.42308743,2064.234
Bahraich,ASIA,5693.627599,27.51834044,81.84342334,149.918436
Baia Mare,EUROPE,61.00000001,47.66106557,23.5739071,382.709
Baicheng,ASIA,178,45.64077715,122.8253277,184.138
Baie-Comeau,NORTH AMERICA,18.99999999,49.21798246,-68.17763158,275.026
Baiquan,ASIA,40,47.61625,126.0708333,223.236
Bairnsdale,AUSTRALIA,22,-37.8219697,147.6185606,511.212
Bakal,EUROPE,19,54.94385965,58.79868421,685.523
Baker Lake,NORTH AMERICA,1,64.325,-96.025,94.596
Bakersfield,NORTH AMERICA,411,35.36709246,-119.0465937,450.0312956
Baku,ASIA,380,40.42059211,49.87682018,150.0805053
Balakhna,EUROPE,57.00000001,56.51052632,43.57090643,103.812
Balakovo,EUROPE,83,52.01536145,47.79297189,133.5591144
Balancan,NORTH AMERICA,4.999999998,17.80666667,-91.54166667,190.186
Balashov,EUROPE,68,51.54546569,43.17218137,160.934
Balboa,SOUTH AMERICA,18.88909479,8.976299842,-79.57075212,30.30449106
Balcarce,SOUTH AMERICA,27,-37.84722222,-58.26512346,114.213
Baleshwar,ASIA,3413.594668,21.35202447,86.7878262,144.7249064
Balikesir,ASIA,113,39.64830383,27.90376106,386.252
Balikpapan,MALAY ARCHIPELAGO,76,-1.245285088,116.8421053,61.604
Balkanabat,ASIA,38,39.51491228,54.35899123,159.552
Balkh,ASIA,404.3252611,36.72759095,66.85741031,689.5614353
Ballarat,AUSTRALIA,93.00000001,-37.55752688,143.8445341,327.38
Ballina,AUSTRALIA,23.00000001,-28.85507246,153.5601449,94.299
Balqash,ASIA,26,46.84615385,74.96955128,357.0698269
Balsas,SOUTH AMERICA,17,-7.520098039,-46.04607843,352.737
Baltasar Brum,SOUTH AMERICA,1.999999998,-30.72083333,-57.33333333,72.802
Balti,EUROPE,70,47.76154762,27.89869048,133.427
Baltimore,NORTH AMERICA,1888.099901,39.26304442,-76.65451772,110.5362924
Balykchy,ASIA,38,42.46491228,76.18464912,2388.792
Balyqshy,ASIA,23.2668437,47.08234313,51.87136539,-23.244
Bama,AFRICA,19,11.52061404,13.6872807,346.464
Bamako,AFRICA,206,12.63033981,-7.991585761,382.5561068
Bambari,AFRICA,12,5.767361111,20.66736111,503.404
Bamenda,AFRICA,340,6.009264706,10.06813725,956.0438659
Bamian,ASIA,1.000000001,34.83333333,67.525,3230.67
Banamba,AFRICA,3.000000002,13.55,-7.45,359.409
Banda Aceh,MALAY ARCHIPELAGO,257,5.526232166,95.3788262,176.305
Bandar Lampung,MALAY ARCHIPELAGO,161,-5.399534162,105.2606625,57.923
Bandar Seri Begawan,MALAY ARCHIPELAGO,170,4.914411765,114.9046569,62.65037883
Bandar-e Bushehr,ASIA,49,28.94183673,50.83367347,0.699581629
Bandar-e-Abbas,ASIA,74,27.19470721,56.2829955,500.46
Bandjarmasin,MALAY ARCHIPELAGO,135,-3.329259259,114.6003086,17.689
Bandundu,AFRICA,33,-3.303535354,17.37752525,340.052
Bandung,MALAY ARCHIPELAGO,10351.84455,-6.746001925,108.0629936,212.8442628
Banes,NORTH AMERICA,11,20.96363636,-75.72575758,176.223
Banff,NORTH AMERICA,1.000000002,51.18333333,-115.575,1912.638
Banfora,AFRICA,9.999999999,10.63666667,-4.761666667,332.198
Bangalore,ASIA,3401,12.84926247,77.71786974,738.7274793
Bangassou,AFRICA,24,4.742708333,22.81770833,498.017
Banghazi,AFRICA,130,32.11288462,20.10294872,130.561
Bangkok,ASIA,2829,13.77849063,100.555588,4.949336868
Bangor,NORTH AMERICA,88.00000001,44.81145833,-68.78560606,47.499
Banguela,AFRICA,17,-12.5745098,13.4127451,271.507
Bangui,AFRICA,121,4.390151515,18.54628099,428.184
Bani Walid,AFRICA,28,31.75654762,13.99136905,347.6630895
Banja Luka,EUROPE,99.00000001,44.80260943,17.20252525,630.005
Banjul,AFRICA,8,13.459375,-16.58541667,12.592
Bannu,ASIA,704,32.89410511,70.6003196,606.3376161
Bansang,AFRICA,1.000000002,13.43333333,-14.65833333,40.127
Banska Bystrica,EUROPE,64,48.74127604,19.14348958,559.367
Banyuwangi,MALAY ARCHIPELAGO,60.00000002,-8.204027778,114.3373611,165.097
Baoding,ASIA,7808.027186,38.85429409,115.7283983,160.0100413
Baoji,ASIA,2846.750464,34.38448804,107.6097153,1129.893339
Baoshan,ASIA,204,25.12373366,99.19285131,2149.076
Baotou,ASIA,95,40.59105263,109.9905263,1243.469
Baqubah,ASIA,104,33.74935897,44.62211538,39.099
Bar Harbor,NORTH AMERICA,7.000000001,44.39166667,-68.2202381,47.499
Barabinsk,ASIA,25.00000001,55.35933333,78.34633333,119.632
Barahona,SOUTH AMERICA,29,18.22155172,-71.11436782,588.883
Baramula,ASIA,915.1330531,34.25466064,74.42976651,2713.778601
Baranavichy,EUROPE,73,53.13287671,26.0140411,176.0816575
Barbacena,SOUTH AMERICA,67,-21.20522388,-43.77624378,804.346
Barcaldine,AUSTRALIA,3.999999998,-23.55208333,145.28125,306.42
Barcelona1,EUROPE,1425,41.4902924,2.108479532,221.8208035
Barcelona2,SOUTH AMERICA,164,10.16737805,-64.66021341,149.411
Barcelos,SOUTH AMERICA,3.999999998,-0.972916667,-62.92708333,44.76
Barddhaman,ASIA,9058.595445,23.41313551,87.70258685,52.29789212
Bareilly,ASIA,7856.897039,28.35550442,79.43473814,183.9141454
Bari,EUROPE,288,41.10422454,16.82766204,61.08104688
Barinas,SOUTH AMERICA,87,8.631130268,-70.22509579,908.879
Barisal,ASIA,5487.632317,22.66926631,90.28574324,5.317785877
Barlett,NORTH AMERICA,410.2042489,35.16179078,-89.83391287,104.723
Barletta,EUROPE,33.00000001,41.31868687,16.27878788,62.038
Barnaul,ASIA,246,53.35240515,83.70331978,177.033
Barquisimeto,SOUTH AMERICA,219,10.0553653,-69.33557839,574.4053776
Barra Mansa,SOUTH AMERICA,64.58690426,-22.54035136,-44.17630227,920.505
Barra do Bugres,SOUTH AMERICA,14,-15.06666667,-57.19345238,216.481
Barra do Garcas,SOUTH AMERICA,33,-15.88787879,-52.25959596,444.706
Barrancabermeja,SOUTH AMERICA,39,7.072222222,-73.85405983,562.679
Barranquilla,SOUTH AMERICA,304,10.91946272,-74.80482456,83.34026974
Barras,SOUTH AMERICA,1.999999999,-4.245833333,-42.3,107.921
Barreiras,SOUTH AMERICA,17,-12.1372549,-45.00392157,734.8671765
Barreiros,SOUTH AMERICA,94,-8.778634752,-35.18386525,268.394
Barretos,SOUTH AMERICA,51,-20.54934641,-48.57320261,524.563
Barrie,NORTH AMERICA,124,44.3781586,-79.68803763,243.199
Barrow,NORTH AMERICA,20,71.29958333,-156.76375,1.865
Bartica,SOUTH AMERICA,7,6.402380952,-58.62857143,45.285
Bartlesville,NORTH AMERICA,20,36.74708333,-95.98666667,235.051275
Barysaw,EUROPE,101,54.22491749,28.50239274,178.598
Basankusu,AFRICA,12,1.216666667,19.79583333,343.243
Basel,EUROPE,343,47.55840622,7.613338192,540.579
Basoko,AFRICA,1.999999997,1.2375,23.59166667,419.031
Basra,ASIA,183,30.51015483,47.81083789,20.258
Basse-terre,SOUTH AMERICA,1.000000002,16.225,-61.44166667,22.182
Basseterre,SOUTH AMERICA,8.999999999,17.31018519,-62.73055556,4.61
Bastia,EUROPE,66,42.68674242,9.438257576,239.943
Bata,AFRICA,33,1.85959596,9.772222222,43.807
Batangas,MALAY ARCHIPELAGO,106,13.77122642,121.0535377,90.48601888
Batatais,SOUTH AMERICA,33,-20.89545455,-47.58383838,787.697
Bataysk,EUROPE,72.97801902,47.14268044,39.72580653,84.291
Batemans Bay,AUSTRALIA,2.000000002,-35.69583333,150.1916667,107.55
Bath,EUROPE,78.00000001,51.38878205,-2.363354701,88.301
Bathurst1,AUSTRALIA,27,11.6015432,29.99629632,421.7543334
Bathurst2,AUSTRALIA,27,11.6015432,29.99629632,421.7543334
Bati,AFRICA,14,11.19345238,40.01309524,1058.310289
Batman,ASIA,129,37.86860465,41.14741602,783.018
Batna,AFRICA,62.99999999,35.55119048,6.163492063,1120.823
Baton Rouge,NORTH AMERICA,587,30.39490346,-91.05530948,23.27098978
Batouri,AFRICA,25,4.429333333,14.37266667,663.024
Battambang,ASIA,70,13.11190476,103.2055952,24.657
Batticaloa,ASIA,61,7.71147541,81.69617486,94.569
Battle Creek,NORTH AMERICA,130,42.31942308,-85.19480769,253.681
Batu Pahat,ASIA,52,1.865224359,102.9426282,6.49565384
Batumi,ASIA,63.99999999,41.62109375,41.62903646,595.012
Baturite,SOUTH AMERICA,4,-4.329166667,-38.88333333,122.162
Baubau,MALAY ARCHIPELAGO,7.999999998,-5.460416667,122.6041667,56.363
Bauchi,AFRICA,94,10.31879433,9.824556738,641.91
Bauru,SOUTH AMERICA,143,-22.31480186,-49.06952214,555.4383706
Bavaro,SOUTH AMERICA,1.000000001,18.71666667,-68.45,29.835
Bawku,AFRICA,21,11.06904762,-0.240476191,259.211
Bay City,NORTH AMERICA,27,28.98209877,-95.96604938,3.735201845
Bayamo,NORTH AMERICA,36,20.38680556,-76.64537037,175.734
Bayan Obo,ASIA,17.99999999,41.78101852,109.9657407,1541.543
Baydhabo,AFRICA,16,3.127083333,43.64791667,461.371
Bayghanin,ASIA,3,48.69444444,55.86944444,147.076
Baytown,NORTH AMERICA,124,29.7703629,-94.98877688,10.8981492
Beaufort,NORTH AMERICA,64,32.41861979,-80.71914063,7.657
Beaufort West,AFRICA,19,-32.35789474,22.57324561,964.955
Beaumont,NORTH AMERICA,161,30.09161491,-94.14539337,49.911
Beaver Falls,NORTH AMERICA,237.1143524,40.6656843,-80.28797394,341.693
Bechar,AFRICA,90,31.6087963,-2.23462963,750.323
Beckley,NORTH AMERICA,87,37.79454023,-81.20181992,669.296
Beer Sheva,ASIA,67.99999999,31.25551471,34.78884804,116.078
Beeville,NORTH AMERICA,22,28.40643939,-97.74924242,55.982
Behbehan,ASIA,34.99999999,30.59952381,50.24142857,733.492
Beian,ASIA,97,48.26237113,126.4956186,304.234
Beihai,ASIA,317,21.54453207,109.1933754,26.112
Beijing,ASIA,170149.1454,35.52267959,114.6616851,138.3270076
Beipiao,ASIA,112,41.82589286,120.7511905,324.789
Beira,AFRICA,109,-19.78555046,34.8632263,56.466
Beirut,ASIA,661,33.89706253,35.60214322,478.9449795
Beitbridge,AFRICA,3,-22.20833333,29.98333333,700.98
Beja,AFRICA,35,36.73547619,9.189523809,311.562
Bejaia,AFRICA,320,36.65515625,4.827682292,612.0940219
Bekasi,MALAY ARCHIPELAGO,3946.565941,-6.242114406,107.205462,275.9490137
Bekiy,AFRICA,5,-24.21333333,45.31333333,373.428
Belabo,AFRICA,1,4.925,13.29166667,691.815
Belaya Kalitva,EUROPE,50.00000001,48.1765,40.791,121.169
Belebey,EUROPE,26.00000001,54.11217949,54.11858974,234.653
Beledweyne,AFRICA,5.000000004,4.743333333,45.20333333,271.905
Belem,SOUTH AMERICA,253,-1.377371542,-48.43333333,19.204
Belen,SOUTH AMERICA,7,-27.64761905,-67.0297619,2580.812
Belfast,EUROPE,385,54.59729437,-5.952922078,48.11337144
Belgaum,ASIA,314,15.87223992,74.49110934,554.9797057
Belgorod,EUROPE,144,50.60885417,36.58703704,178.664
Belgrade,EUROPE,342,44.79878168,20.44539474,205.56
Belize City,NORTH AMERICA,20,17.50666667,-88.2075,56.308
Bell Ville,SOUTH AMERICA,17,-32.62254902,-62.69068627,121.392
Bella Union,SOUTH AMERICA,8.999999999,-30.25185185,-57.59907407,72.802
Bella Vista,SOUTH AMERICA,18,-22.10462963,-56.53101852,248.656
Bellary,ASIA,216,15.16739969,76.93267747,495.7901458
Belleville1,NORTH AMERICA,262.2357099,38.5702484,-90.00058405,162.9597119
Belleville2,NORTH AMERICA,81.99999999,44.18577236,-77.39054878,216.276
Bellingham,NORTH AMERICA,126,48.76216931,-122.4710979,125.384
Bello,SOUTH AMERICA,49.28027741,6.33331977,-75.55304709,1874.659
Belmopan,NORTH AMERICA,11,17.2530303,-88.7719697,56.308
Belo Horizonte,SOUTH AMERICA,997,-19.88118522,-43.9955784,812.9017076
Belogorsk,ASIA,62.00000001,50.90913978,128.4956989,189.009
Bemidji,NORTH AMERICA,21,47.49484127,-94.8952381,411.126
Ben Gardane,AFRICA,39,33.13568376,11.20769231,2.199
Bend,NORTH AMERICA,117,44.05954416,-121.305698,1113.984
Bendigo,AUSTRALIA,75.00000001,-36.75211111,144.2676667,154.78
Benevento,EUROPE,48,41.13767361,14.78871528,544.954
Bengbu,ASIA,2447.407579,33.29321226,117.3946284,28.12645657
Bengkulu,MALAY ARCHIPELAGO,79.99999998,-3.809583333,102.2928125,494.802
Beni,AFRICA,255,0.619052288,29.43839869,1275.485
Beni Mazar,AFRICA,286,28.55055361,30.74973776,110.711
Beni Ounif,AFRICA,5,32.05333333,-1.251666667,1255.294
Beni Suef,AFRICA,147,29.10867347,31.07239229,290.246
Benin City,AFRICA,202,6.353960396,5.613407591,88.996
Benoni,AFRICA,443.8081876,-26.13766787,28.24141533,1559.72553
Bento Goncalves,SOUTH AMERICA,59,-29.15042373,-51.51949153,250.318
Benton Harbor,NORTH AMERICA,125,42.07993333,-86.47253333,185.074
Benxi,ASIA,218,41.31444954,123.7757645,147.446
Berber,AFRICA,25,18.045,33.98,410.924688
Berbera,AFRICA,8.999999997,10.44166667,45.00555556,242.3271665
Berberati,AFRICA,44,4.251325758,15.78939394,615.484
Berdyansk,EUROPE,34,46.77034314,36.7875,13.901
Berekum,AFRICA,15,7.458333333,-2.596111111,274.214
Berezniki,EUROPE,123,59.424729,56.79126016,150.237
Bergamo,EUROPE,1191.035895,45.67217432,9.647173169,309.2450665
Bergen,EUROPE,210,60.37099206,5.315357143,258.545
Berkeley,NORTH AMERICA,252.8499963,37.90986116,-122.3033615,73.94971415
Berlin,EUROPE,1947,52.50390772,13.3866932,54.37286903
Bermejo,SOUTH AMERICA,10,-22.72833333,-64.34416667,1260.823
Bern,EUROPE,133,46.96240602,7.44906015,1413.914411
Berri,AUSTRALIA,4.999999999,-34.27666667,140.5966667,55.616
Bertoua,AFRICA,1,4.583333333,13.68333333,691.815
Besalampy,AFRICA,2,-16.74166667,44.4875,26.723
Besancon,EUROPE,128,47.25078125,6.004947917,402.5957265
Betanzos,SOUTH AMERICA,3,-19.54722222,-65.45555556,3509.566
Bethal,AFRICA,24,-26.45138889,29.47013889,1632.183
Bethanie,AFRICA,3,-26.49166667,17.15,1017.443
Bethel,NORTH AMERICA,17,60.78333333,-161.7588235,22.231
Bethlehem,AFRICA,34,-28.22181373,28.30833333,1940.287
Bezhetsk,EUROPE,36,57.79143519,36.69583333,153.734
Beziers,EUROPE,56,43.3453869,3.240029762,186.093
Bhagalpur,ASIA,14793.80084,24.67222667,86.85783664,145.6806032
Bharatpur,ASIA,3374.17418,27.41175194,77.42311642,188.1148264
Bhatpara,ASIA,5286.679846,22.86742426,88.49344459,10.99376093
Bhavnagar,ASIA,188,21.74450355,72.12256206,10.666
Bhilwara,ASIA,136,25.35306373,74.62677696,453.916
Bhisho,AFRICA,129,-32.86027132,27.36175711,758.401
Bhiwandi,ASIA,284.829017,19.34475769,73.0786563,360.1972985
Bhiwani,ASIA,3461.986751,28.49893065,76.01922672,251.5252784
Bhopal,ASIA,429,23.23341103,77.43595571,463.944
Bhubaneshwar,ASIA,2896.10104,20.20834693,85.56765018,89.42088104
Bhusawal,ASIA,527,21.03716003,75.6852783,357.2494832
Biak,MELANESIA,33.99999999,-1.17254902,136.085049,55.413
Bialystok,EUROPE,163,53.13583845,23.15117587,148.729
Biarritz,EUROPE,213,43.48693271,-1.522926448,186.846
Bicheno,AUSTRALIA,0.999999998,-41.875,148.2916667,71.275
Bida,AFRICA,41,9.088617886,6.021951219,222.6075609
Bidar,ASIA,130,17.92237179,77.49442308,551.164
Biel,EUROPE,41.99999999,47.13849206,7.255952381,540.579
Bielefeld,EUROPE,286,52.02634033,8.537412587,138.1336864
Bien Hoa,ASIA,875.8167977,10.93499568,106.8595531,19.20311531
Big Spring,NORTH AMERICA,43,32.24147287,-101.4812016,789.719
Biggar,NORTH AMERICA,7,52.06190476,-107.9892857,584.2544286
Biharamulo,AFRICA,20,-2.628333333,31.32625,1260.558
Bijapur,ASIA,58,16.83477011,75.71293103,580.117
Bijar,ASIA,13,35.87692308,47.59679487,1898.532
Bikaner,ASIA,113,28.02131268,73.31128319,223.5363345
Bikin,ASIA,26.99999999,46.82530864,134.2493827,148.741
Bila Tserkva,EUROPE,67.99999999,49.80490196,30.11323529,193.127
Bilaspur,ASIA,473,22.0539993,82.02417195,416.0228209
Bilbao,EUROPE,299,43.29740803,-2.947742475,141.176709
Billings,NORTH AMERICA,151,45.79116998,-108.5447572,1286.706
Biloela,AUSTRALIA,6,-24.39166667,150.5097222,288.221
Biloxi,NORTH AMERICA,46.76874736,30.40700739,-88.93213339,20.475
Biltine,AFRICA,3,14.53055556,20.91944444,459.411
Binghamton,NORTH AMERICA,215,42.11267442,-75.95651163,420.4222046
Binjai,MALAY ARCHIPELAGO,592.2898468,3.739140417,98.51092049,332.986
Bintulu,MALAY ARCHIPELAGO,51,3.180392157,113.0632353,51.907
Birak,AFRICA,11,27.54621212,14.26742424,432.653
Birao,AFRICA,2,10.3,22.77916667,483.154
Biratnagar,ASIA,6998.388268,26.37947196,87.23314282,241.9650844
Birganj,ASIA,12251.79714,26.77943342,84.78326398,185.2201434
Birjand,ASIA,49.00000001,32.86785714,59.21122449,1787.478
Birmingham1,NORTH AMERICA,1026,33.47678687,-86.80637589,198.3637057
Birmingham2,EUROPE,1606,52.53048464,-1.967844541,110.0712628
Birni Nkonni,AFRICA,22,13.80681818,5.247727273,301.18
Birnin Kebbi,AFRICA,39,12.46837607,4.210042735,246.681
Birobidzhan,ASIA,103,48.78478964,132.9175566,154.016
Birsk,EUROPE,37,55.4277027,55.53671171,129.725
Biryusinsk,ASIA,26,55.96346154,97.82083333,507.604
Bishkek,ASIA,388,42.87708333,74.59965636,2324.309026
Bishop,NORTH AMERICA,5.999999998,37.36805556,-118.4013889,2366.781
Biskra,AFRICA,67,34.84676617,5.728855721,154.562
Bismarck,NORTH AMERICA,87,46.81867816,-100.7815134,561.602
Bissau,AFRICA,84.00000001,11.87519841,-15.61686508,7.398
Bitam,AFRICA,15,2.082777778,11.49,630.17
Bitola,EUROPE,29.99999999,41.03444444,21.33055556,794.292
Biu,AFRICA,13,10.61858974,12.18782051,497.785
Biysk,ASIA,143,52.53368298,85.1752331,253.492
Bizerte,AFRICA,81,37.2600823,9.862757202,28.246
Blackpool,EUROPE,184,53.83283514,-3.017708333,80.89380434
Blacksburg,NORTH AMERICA,91,37.19148352,-80.41730769,690.018
Blagodarnyy,EUROPE,26,45.10416667,43.42403846,154.313
Blagoveshchensk,ASIA,86.11419636,50.29046188,127.5366728,205.988
Blantyre,AFRICA,3664,-15.809748,35.28138646,629.2984724
Blenheim,POLYNESIA,27,-41.51419753,173.9503086,503.01
Blitar,MALAY ARCHIPELAGO,1960.339718,-8.151973839,112.0860333,151.633318
Bloemfontein,AFRICA,140,-29.1239881,26.22154762,1477.593
Bloemhof,AFRICA,7.000000001,-27.64404762,25.60119048,1302.486
Bloomington1,NORTH AMERICA,105,39.16055556,-86.5384127,237.898
Bloomington2,NORTH AMERICA,132,40.49829545,-88.97878788,214.1400833
Bluefields,SOUTH AMERICA,7.000000004,12.02261905,-83.7702381,8.515
Blumenau,SOUTH AMERICA,194,-26.89213918,-49.09579038,653.6224098
Bo,AFRICA,40,7.965208333,-11.74145833,86.826
Boa Vista,SOUTH AMERICA,121,2.818595041,-60.71646006,130.288
Boaco,SOUTH AMERICA,6,12.47777778,-85.65555556,372.489
Bobo Dioulasso,AFRICA,83,11.17861446,-4.296184739,358.201
Bocaiuva,SOUTH AMERICA,11,-17.10984848,-43.81969697,849.219
Bocas del Toro,SOUTH AMERICA,1,9.341666667,-82.25,327.393
Bodo,EUROPE,53.99999999,67.28811728,14.42067901,92.739
Boende,AFRICA,5.000000003,-0.23,20.86333333,357.876
Bogor,MALAY ARCHIPELAGO,1724.048361,-6.481412076,106.8041128,283.6046869
Bogoroditsk,EUROPE,26,53.77948718,38.11602564,203.973
Bogota,SOUTH AMERICA,614,4.647394137,-74.12068404,1604.715
Bogotol,ASIA,33,56.21212121,89.52171717,228.424
Bogue,AFRICA,6.000000001,16.59583333,-14.27777778,29.677
Boise,NORTH AMERICA,420,43.61638889,-116.2859127,1002.119
Bojnurd,ASIA,63,37.47804233,57.32301587,1486.254
Boke,AFRICA,4.000000001,10.93958333,-14.30208333,34.693
Bol,AFRICA,2.999999999,13.46111111,14.71111111,289.794
Bolama,AFRICA,7,11.57738095,-15.48809524,7.398
Bolgatanga,AFRICA,29,10.80201149,-0.856034483,197.955
Boli,ASIA,43.99999999,45.75643939,130.5558712,360.409
Bollnas,EUROPE,54,61.35987654,16.38703704,176.788
Bolobo,AFRICA,8,-2.154166667,16.22916667,374.782
Bologna,EUROPE,364,44.51348443,11.33960623,187.98
Bologoye,EUROPE,35,57.88928571,34.07261905,191.251
Bolu,ASIA,101,40.74554455,31.64628713,998.552
Bolzano,EUROPE,60.00000001,46.48,11.32888889,1508.397331
Boma,AFRICA,15,-5.830555556,13.05166667,304.888
Bondo,AFRICA,16,3.819791667,23.68333333,494.852
Bondoukou,AFRICA,9.999999998,8.0425,-2.801666667,256.078
Bongandanga,AFRICA,2.000000001,1.508333333,21.05416667,405.544
Bongaree,AUSTRALIA,13.99999999,-27.0577381,153.1482143,14.663
Bongor,AFRICA,8.000000001,10.28229167,15.36875,325.016
Bonn,EUROPE,567.9485385,50.7469562,7.131823049,288.3694939
Boorama,AFRICA,31,9.962096774,43.16478495,1490.111
Boosaaso,AFRICA,6.000000001,11.28611111,49.17777778,306.406
Boras,EUROPE,91,57.73168498,12.94304029,114.2061978
Bordeaux,EUROPE,678,44.84352262,-0.607583579,69.858
Bordertown,AUSTRALIA,3.999999996,-36.30416667,140.7583333,60.675
Borisoglebsk,EUROPE,51.99999999,51.36875,42.08894231,132.265
Borlange,EUROPE,114,60.49042398,15.42953216,216.711
Borovichi,EUROPE,56,58.39002976,33.92142857,163.035
Borzya,ASIA,25,50.38833333,116.5203333,789.105
Bose,ASIA,82.00000001,23.88058943,106.6262195,657.166
Bosobolo,AFRICA,3.999999997,4.191666667,19.87083333,473.72
Bossangoa,AFRICA,31,6.493010753,17.45295699,533.023
Bossembele,AFRICA,5.000000001,5.27,17.64,651.828
Boston,NORTH AMERICA,6099,42.28691179,-71.24472591,96.71172217
Botosani,EUROPE,45,47.75481481,26.6487037,332.944
Botucatu,SOUTH AMERICA,60,-22.88555556,-48.45222222,600.271
Bouake,AFRICA,96,7.702690972,-5.037934028,240.4041771
Bouar,AFRICA,28,5.936011905,15.60029762,730.743
Bougouni,AFRICA,13,11.42179487,-7.486538462,359.249
Bouira,AFRICA,119,36.39684874,3.885084034,464.391
Boulder,NORTH AMERICA,93.99999999,40.02021277,-105.2589539,2506.858033
Boulder City,NORTH AMERICA,24,35.98090278,-114.8434028,818.4765167
Bourges,EUROPE,106,47.09363208,2.401336478,164.368
Bournemouth,EUROPE,356.4791491,50.76532196,-1.871617637,15.24125379
Boutilimit,AFRICA,7,17.55,-14.7,48.238
Bowling Green1,NORTH AMERICA,95.99999999,36.97039931,-86.45138889,198.9281292
Bowling Green2,NORTH AMERICA,33,41.38055556,-83.65934343,203.432
Bozeman,NORTH AMERICA,50,45.68133333,-111.0523333,1890.18
Bozoum,AFRICA,13,6.314102564,16.38012821,689.941
Bradford,EUROPE,757.835397,53.73870209,-1.79143329,154.93
Braga,EUROPE,1163.395014,41.4123061,-8.356418797,251.548
Braganca,SOUTH AMERICA,21,-1.05,-46.775,37.405
Braganca Paulista,SOUTH AMERICA,43,-22.9377907,-46.54670543,972.698
Brahmapur,ASIA,1497,19.37971499,84.72589067,296.5105344
Brainerd,NORTH AMERICA,50,46.35633333,-94.222,398.712
Brandfort,AFRICA,1.000000001,-28.7,26.45833333,1361.778
Brandon,NORTH AMERICA,49,49.84047619,-99.95816327,429.5586939
Brasilia,SOUTH AMERICA,533,-15.82040338,-47.97573483,877.2970732
Brasov,EUROPE,108,45.6470679,25.63125,800.254
Bratislava,EUROPE,196,48.16347789,17.12716837,231.4
Bratsk,ASIA,28,56.30357143,101.7110119,437.614
Braunschweig,EUROPE,222,52.2786036,10.5234985,86.113
Brazzaville,AFRICA,174,-4.247126437,15.24037356,488.746
Bredasdorp,AFRICA,4,-34.52916667,20.0375,72.741
Bremen,EUROPE,715.2669668,53.09638626,8.771530029,8.265079614
Bremerhaven,EUROPE,131,53.56615776,8.592748092,4.242
Bremerton,NORTH AMERICA,210,47.59353175,-122.6538889,98.306
Brest1,EUROPE,173,48.40496146,-4.477408478,28.712
Brest2,EUROPE,91.99999999,52.11259058,23.7057971,154.167
Breves,SOUTH AMERICA,8.999999999,-1.681481482,-50.48518519,17.794
Bria,AFRICA,12,6.540972222,21.98541667,614.0977083
Bridgeport,NORTH AMERICA,558.2387035,41.23334908,-73.20182861,164.95
Bridgetown,SOUTH AMERICA,127,13.13293963,-59.59389764,3.85
Brighton,EUROPE,310,50.83282258,-0.256612903,10.55553065
Brikama,AFRICA,136.4124086,13.34804809,-16.70201527,12.592
Brindisi,EUROPE,72.00000001,40.64236111,17.95046296,73.51627779
Brisbane,AUSTRALIA,978,-27.4776244,152.9859066,123.6735169
Bristol1,NORTH AMERICA,81.99999999,36.59308943,-82.17997967,624.438
Bristol2,EUROPE,405.5294772,51.48416217,-2.586351657,88.301
Brits,AFRICA,23,-25.62826087,27.7884058,1187.158
Brive,EUROPE,74,45.1670045,1.515765766,389.847
Brno,EUROPE,250,49.20033333,16.5978,435.639
Brochet,NORTH AMERICA,1,57.89166667,-101.6666667,365.774
Brockville,NORTH AMERICA,42,44.61428571,-75.69325397,155.668
Broken Hill,AUSTRALIA,40,-31.960625,141.4520833,209.224
Brookings,NORTH AMERICA,28,44.31071429,-96.78988095,493.768
Brooks,NORTH AMERICA,23,50.57608696,-111.8960145,746.071
Broome,AUSTRALIA,7.000000004,-17.95595238,122.225,68.265
Brovary,EUROPE,25,50.50866667,30.76733333,134.202
Brownsville,NORTH AMERICA,136.0032478,25.9427687,-97.48419116,6.125
Brownsweg,SOUTH AMERICA,4.000000001,5.020833333,-55.17083333,25.279
Brownwood,NORTH AMERICA,38,31.70285088,-98.98662281,437.8455395
Brugge,EUROPE,175,51.18957143,3.201190476,2.275
Brumado,SOUTH AMERICA,14,-14.20059524,-41.675,567.39
Brunswick,NORTH AMERICA,77.99999999,31.20715812,-81.50064103,13.041
Brusque,SOUTH AMERICA,72.00000001,-27.09409722,-48.91215278,121.115
Brussels,EUROPE,4320,50.97335262,4.336062886,78.55038201
Bryan,NORTH AMERICA,147,30.64382086,-96.34750567,101.623
Bryansk,EUROPE,253,53.27302372,34.36149539,191.869
Bua Yai,ASIA,7.999999999,15.59375,102.425,181.55
Bucaramanga,SOUTH AMERICA,292,7.063327626,-73.1298516,686.6629371
Buchanan,AFRICA,22,5.884848485,-10.04431818,0.179
Buchans,NORTH AMERICA,3.999999999,48.82708333,-56.86458333,278.24
Bucharest,EUROPE,561,44.44827689,26.07801545,80.05150803
Budapest,EUROPE,956,47.48278417,19.10258891,166.6057683
Budaun,ASIA,5055.025753,27.88535684,79.00017506,169.2387851
Buenaventura,SOUTH AMERICA,45,3.882962963,-77.00944444,701.4782995
Buenos Aires,SOUTH AMERICA,3467,-34.68183588,-58.50707624,14.45202003
Buffalo,NORTH AMERICA,1187,42.9519166,-78.84507161,336.2781314
Bugt,ASIA,18,48.75925926,121.9037037,929.732
Bugulma,EUROPE,80.99999999,54.54722222,52.79393004,235.779
Buguruslan,EUROPE,34.00000001,53.64534314,52.42671569,158.039
Buizhou,ASIA,2313.189422,37.47904155,117.6867158,10.80140273
Bujumbura,AFRICA,6595.783102,-3.20054365,29.75451197,1549.156587
Bukachacha,ASIA,3,52.98055556,116.8972222,707.916
Bukama,AFRICA,3.999999997,-9.2,25.84583333,849.742
Bukavu,AFRICA,221,-2.362556561,28.83099548,1516.108
Bukittinggi,MALAY ARCHIPELAGO,799,-0.199249061,100.5355131,539.2661294
Bukoba,AFRICA,127,-1.300590551,31.76738845,1235.367
Bulaevo,ASIA,9,54.90277778,70.44351852,127.261
Bulandshahr,ASIA,4488.630142,28.34514394,77.86728903,205.1979347
Bulawayo,AFRICA,312,-20.1508547,28.57430556,1232.251
Bulungu,AFRICA,14.00000001,-4.544642857,18.60297619,441.064
Bumba,AFRICA,20,2.19,22.46875,430.121
Bunbury,AUSTRALIA,28,-33.34553571,115.6377976,73.11
Bundaberg,AUSTRALIA,51,-24.87124183,152.3457516,5.103
Bungoma,AFRICA,1515.840814,0.568358726,34.47441596,1477.531
Bunia,AFRICA,36,1.554861111,30.24375,1079.159
Buon Me Thuot,ASIA,191,12.67338569,108.0139616,611.5891517
Bur Safaga,AFRICA,5.000000002,26.74833333,33.93166667,460.894
Bur Said,AFRICA,44,31.25662879,32.29185606,0.394
Buraydah,ASIA,114,26.35343567,43.95840643,710.5727544
Burco,AFRICA,27,9.525308642,45.5345679,1082.401
Burgas,EUROPE,47.00000001,42.50053191,27.44042553,155.53
Burgos,EUROPE,74,42.35810811,-3.699211712,926.587
Burhanpur,ASIA,119,21.31554622,76.21729692,360.813
Buriram,ASIA,32,15.00338542,103.1010417,142.8839453
Burley,NORTH AMERICA,28,42.54553571,-113.7872024,1496.476
Burlington1,NORTH AMERICA,50.00000001,40.81633333,-91.13283333,200.293
Burlington2,NORTH AMERICA,143,44.47534965,-73.15891608,278.636
Burnie,AUSTRALIA,27,-41.0595679,145.8969136,419.941
Burns Lake,NORTH AMERICA,6.999999999,54.23333333,-125.7642857,964.884
Bursa,ASIA,359,40.23528319,29.06859331,285.6133105
Bururi,AFRICA,50,-3.942,29.6505,1513.731
Busan,ASIA,696,35.18433908,129.0125359,116.0894598
Businga,AFRICA,11,3.354545455,20.87575758,412.09
Busselton,AUSTRALIA,7,-33.64880952,115.3380952,73.11
Buta,AFRICA,24,2.805555556,24.73680556,474.618
Butare,AFRICA,2759.876741,-2.713556931,29.73781992,1696.792817
Butembo,AFRICA,95.99999999,0.141145833,29.33611111,1275.485
Butte,NORTH AMERICA,54,45.99212963,-112.5205247,1848.553178
Butterworth,ASIA,545.6549517,5.36727254,100.4654439,130.953
Butuan,MALAY ARCHIPELAGO,49,8.95,125.529932,394.252
Buurhakaba,AFRICA,4.000000002,2.804166667,44.07916667,116.687
Buxoro,ASIA,117.0453503,39.7776179,64.41703116,233.435
Buy,EUROPE,34.00000001,58.48039216,41.53921569,144.366
Buyant-Uhaa,ASIA,15,44.905,110.1327778,930.835
Buynaksk,EUROPE,24.99999999,42.827,47.12266667,841.805
Buzau,EUROPE,61,45.1636612,26.81338798,600.021
Buzmeyin,ASIA,26,38.05160256,58.19807692,106.321
Buzuluk,EUROPE,58.99999999,52.78403955,52.25861582,142.437
Bydgoszcz,EUROPE,228,53.13538012,18.02931287,96.26409211
Byron Bay,AUSTRALIA,7.000000008,-28.64880952,153.6107143,94.299
Bytom,EUROPE,455.6206384,50.35230949,18.87728844,238.6468234
Byumba,AFRICA,1714.882544,-1.610739901,29.96404414,1711.883566
Ca Mau,ASIA,346.4104058,9.332556322,105.183281,1.546
Caazapa,SOUTH AMERICA,6.999999999,-26.19166667,-56.37261905,113.271
Caballococha,SOUTH AMERICA,4,-3.904166667,-70.52083333,113.557
Cabanatuan,MALAY ARCHIPELAGO,2465.666156,15.53411838,120.9364815,203.8780162
Cabimas,SOUTH AMERICA,237,10.27791842,-71.35868495,32.195
Cabinda,AFRICA,26.99999999,-5.572530864,12.18734568,77.027
Cabo Frio,SOUTH AMERICA,210,-22.8493254,-42.17503968,396.3719714
Cabo San Lucas,NORTH AMERICA,15,22.89777778,-109.9211111,3.741
Cabo de Santo Agostinho,SOUTH AMERICA,21,-8.287698413,-35.03968254,268.394
Caboolture,AUSTRALIA,67,-27.08134328,152.9475124,229.0838135
Caborca,NORTH AMERICA,26,30.7224359,-112.163141,256.706
Cacador,SOUTH AMERICA,39,-26.77542735,-51.01880342,1019.637821
Cachoeira do Sul,SOUTH AMERICA,38.99999999,-30.0267094,-52.90576923,183.6229064
Cachoeiro de Itapemirim,SOUTH AMERICA,61,-20.83674863,-41.13374317,687.885
Cacolo,AFRICA,0.999999999,-10.14166667,19.25833333,1276.431
Cadillac,NORTH AMERICA,25.99999999,44.2599359,-85.41538462,307.196
Cadiz1,EUROPE,336,12.12046131,117.1720982,170.1899048
Cadiz2,EUROPE,336,12.12046131,117.1720982,170.1899048
Caen,EUROPE,253,49.20777339,-0.349637681,24.471
Cafayate,SOUTH AMERICA,6,-26.06527778,-65.98194444,1649.333
Cagayan de Oro,MALAY ARCHIPELAGO,98.00000002,8.468877551,124.6313776,333.536
Cagliari,AFRICA,169,39.24714004,9.158727811,214.499
Cahul,EUROPE,26.99999999,45.90925926,28.19320988,66.13
Caibarien,NORTH AMERICA,12,22.51805556,-79.47777778,69.619
Caico,SOUTH AMERICA,10,-6.455833333,-37.1,237.893
Cairns,AUSTRALIA,74.00000001,-16.92376126,145.7355856,256.531
Cairo,AFRICA,6631,30.40395868,31.24154476,81.3051744
Cajabamba,SOUTH AMERICA,4.000000002,-7.616666667,-78.04791667,2636.611
Cajamarca,SOUTH AMERICA,53,-7.152515723,-78.49732704,2636.611
Calabar,AFRICA,90,4.968333333,8.321018518,55.52620831
Calabozo,SOUTH AMERICA,43,8.926162791,-67.42674419,68.409
Calais1,NORTH AMERICA,1,45.16666667,-67.25,124.887
Calais2,EUROPE,101,50.94752475,1.862458746,26.947
Calama,SOUTH AMERICA,32,-22.44895833,-68.92734375,3109.668
Calarasi,EUROPE,62,44.21034946,27.35389785,40.502
Calbayog,MALAY ARCHIPELAGO,17,12.07696078,124.5887255,49.149
Calbuco,SOUTH AMERICA,3.000000001,-41.75277778,-73.15277778,91.091
Calcutta,ASIA,67651.98669,22.92876094,87.74498816,50.71754813
Caldera,SOUTH AMERICA,6.999999998,-27.06428571,-70.82380952,717.224
Caldwell,NORTH AMERICA,177,43.60451977,-116.6029661,1002.119
Calgary,NORTH AMERICA,758,51.04293096,-114.0748241,1243.314143
Cali,SOUTH AMERICA,273,3.441178266,-76.51858974,1542.430077
Callao,SOUTH AMERICA,58.4491859,-12.02962639,-77.12268612,62.10030291
Caloundra,AUSTRALIA,55.95298382,-26.77966061,153.1128684,3.25
Calucinga,AFRICA,1,-11.31666667,16.19166667,1569.08
Calulo,AFRICA,2,-9.991666667,14.89583333,325.83
Cam Pha,ASIA,28,21.05952381,107.3252976,250.761
Cam Ranh,ASIA,9.999999997,11.90333333,109.2183333,16.078
Camabatela,AFRICA,2.999999997,-8.183333333,15.36666667,1091.109
Camacupa,AFRICA,6.999999997,-12.01904762,17.46666667,1413.167
Camaguey,NORTH AMERICA,95,21.39245614,-77.91798246,46.965
Camana,SOUTH AMERICA,34,-16.60122549,-72.72083333,948.116
Camaqua,SOUTH AMERICA,28,-30.85089286,-51.81220238,77.589
Cameta,SOUTH AMERICA,1,-2.241666667,-49.51666667,25.976
Camiri,SOUTH AMERICA,7.999999999,-20.034375,-63.52604167,970.692
Camocim,SOUTH AMERICA,9.000000005,-2.896296296,-40.85092593,3.412
Campana,SOUTH AMERICA,35,-34.1752381,-58.95642857,13.536
Campbell River,NORTH AMERICA,42,50.01190476,-125.2519841,558.2245143
Campeche,NORTH AMERICA,42,19.84305556,-90.52380952,34.018
Campina Grande,SOUTH AMERICA,187,-7.175846702,-35.88712121,248.71
Campinas,SOUTH AMERICA,803.4885227,-22.91690292,-47.10828848,672.6085663
Campo Belo,SOUTH AMERICA,29,-20.88189655,-45.27758621,848.681
Campo Grande,SOUTH AMERICA,307,-20.46712812,-54.62193268,488.874
Campo Maior,SOUTH AMERICA,8.999999999,-4.824074074,-42.17777778,107.921
Campo Murao,SOUTH AMERICA,48,-24.02916667,-52.38142361,563.92015
Campoalegre,SOUTH AMERICA,17,2.704411765,-75.3245098,1611.747
Campos,SOUTH AMERICA,118,-21.75466102,-41.32189266,147.224
Camrose,NORTH AMERICA,20,53.02083333,-112.8358333,682.077
Can Tho,ASIA,854.7627754,9.970200055,105.6843171,2.433687453
Canakkale,ASIA,36,40.15578704,26.41759259,102.123
Cananea,NORTH AMERICA,19,30.99166667,-110.2916667,1222.1714
Canas,SOUTH AMERICA,11,10.42651515,-85.09772727,165.701
Canatlan,NORTH AMERICA,6,24.52916667,-104.7791667,2026.816
Canberra,AUSTRALIA,358,-35.30870577,149.0905726,755.340271
Cancun,NORTH AMERICA,93,21.15322581,-86.84659498,0.717
Canela,SOUTH AMERICA,41,-29.3597561,-50.84268293,489.216
Cangamba,AFRICA,2,-13.70416667,19.85833333,1361.229
Cangzhou,ASIA,2520.262756,38.49948108,116.6253175,8.983268567
Caninde,SOUTH AMERICA,7.999999998,-4.354166667,-39.31770833,316.846
Canoas,SOUTH AMERICA,397.6869725,-29.91400241,-51.11032712,273.5095208
Canoinhas,SOUTH AMERICA,30,-26.175,-50.39555556,901.473
Canton,NORTH AMERICA,425.3524743,40.83650842,-81.41629403,319.937
Cap-Chat,NORTH AMERICA,3.000000002,49.1,-66.69166667,47.761
Cap-Haitien,SOUTH AMERICA,132,19.69324495,-72.21666667,248.513
Capanema,SOUTH AMERICA,21,-1.182936508,-47.18809524,40.608
Cape Coast,AFRICA,69,5.145289855,-1.267028986,102.414
Cape Coral,NORTH AMERICA,228.2255421,26.62758366,-81.98676747,6.777103399
Cape Dorset,NORTH AMERICA,1,64.23333333,-76.55,109.973
Cape Girardeau,NORTH AMERICA,65,37.31884615,-89.55666667,139.253
Cape Town,AFRICA,761,-33.95041612,18.55367937,75.99934297
Capitol Hill,MICRONESIA,40,15.17270833,145.7191667,1.255
Caracarai,SOUTH AMERICA,15,1.828888889,-61.135,124.686
Caracas,SOUTH AMERICA,440,10.44765152,-66.93715909,325.457
Carahue,SOUTH AMERICA,6,-38.70416667,-73.16666667,125.656
Caratinga,SOUTH AMERICA,24,-19.77673611,-42.14305556,526.246
Carazinho,SOUTH AMERICA,35,-28.28928571,-52.795,575.32
Carbondale,NORTH AMERICA,38,37.7254386,-89.22697368,139.253
Cardiff,EUROPE,542,51.57667589,-3.312007995,164.735
Carhue,SOUTH AMERICA,11,-37.17424242,-62.76363636,240.977
Carlisle,EUROPE,84.99999999,54.89901961,-2.940588235,280.4271764
Carlsbad,NORTH AMERICA,42,32.42638889,-104.2400794,1226.425
Carmelo,SOUTH AMERICA,11,-33.99015152,-58.28939394,16.5467
Carnot,AFRICA,16,4.942708333,15.8796875,615.484
Carora,SOUTH AMERICA,34,10.17377451,-70.07916667,519.992
Carpina,SOUTH AMERICA,206,-7.823705502,-35.30449029,248.71
Carson City,NORTH AMERICA,69,39.17294686,-119.7576087,1599.343
Cartagena1,SOUTH AMERICA,173,10.38737958,-75.48501927,24.133
Cartagena2,EUROPE,71.99999999,37.62662037,-0.998726852,132.1266459
Cartago1,SOUTH AMERICA,53,9.868710692,-83.93034591,1139.649
Cartago2,SOUTH AMERICA,37,4.763513513,-75.93220721,2001.454
Cartwright,NORTH AMERICA,2.999999998,53.71111111,-57.01944444,183.651
Caruaru,SOUTH AMERICA,41,-8.269105691,-35.98028455,312.3649269
Carupano,SOUTH AMERICA,35,10.65928571,-63.25928571,284.696
Casa Grande,NORTH AMERICA,46,32.89782609,-111.7501812,656.883
Casablanca,AFRICA,610,33.5618306,-7.522677596,171.86
Cascavel,SOUTH AMERICA,129,-24.95303618,-53.45988372,449.0276267
Caserta,EUROPE,538.9487517,41.00033948,14.36646941,330.0545966
Casper,NORTH AMERICA,97.00000001,42.84218213,-106.341323,1972.99
Castanhal,SOUTH AMERICA,45,-1.286851852,-47.91722222,40.608
Castello,EUROPE,116,39.96989943,-0.126508621,400.8265752
Castries,SOUTH AMERICA,19,14.01008772,-60.99254386,6.951459216
Castro1,SOUTH AMERICA,21,-42.47460317,-73.78174603,80.709
Castro2,SOUTH AMERICA,22,-24.79318182,-50.00643939,853.3431591
Catalao,SOUTH AMERICA,44,-18.16401515,-47.94450758,839.241
Catamarca,SOUTH AMERICA,83,-28.44718876,-65.75883534,792.143
Catanduva,SOUTH AMERICA,107,-21.13403427,-48.97087227,534.602785
Catania,EUROPE,345,37.54618357,15.05913043,158.9543305
Catanzaro,EUROPE,93.00000001,38.89292115,16.60134409,171.306
Cauquenes,SOUTH AMERICA,18,-35.9625,-72.32638889,123.112
Caxias,SOUTH AMERICA,25,-4.864333333,-43.363,99.601
Caxias do Sul,SOUTH AMERICA,155,-29.15655914,-51.18225806,250.318
Caxito,AFRICA,3.000000002,-8.577777778,13.66111111,94.22
Cayambe,SOUTH AMERICA,15,0.046111111,-78.14722222,1770.683
Cayenne,SOUTH AMERICA,39.00000001,4.925854701,-52.30363248,72.702
Cebu,MALAY ARCHIPELAGO,309,10.31154261,123.8964941,175.2659223
Cedar City,NORTH AMERICA,32,37.68697917,-113.0734375,1635.666
Cedar Rapids,NORTH AMERICA,239,41.99902371,-91.66607392,259.6035305
Ceduna,AUSTRALIA,3.999999999,-32.125,133.6708333,6.571
Celaya,NORTH AMERICA,95,20.5354386,-100.8096491,2091.549
Celeken,ASIA,3,39.44722222,53.11388889,-19.887
Central Coast,AUSTRALIA,6.000000001,-33.43333333,151.2875,51.477
Centralia,NORTH AMERICA,39,46.72820513,-122.9726496,416.9823589
Ceres,SOUTH AMERICA,17,-15.30686275,-49.5995098,684.936
Cerrillos,SOUTH AMERICA,7,-24.89404762,-65.49166667,2320.791
Cerro de Pasco,SOUTH AMERICA,15,-10.67388889,-76.26222222,4111.689
Ceske Budejovice,EUROPE,61,48.98169399,14.47663934,543.5597902
Chabahar,ASIA,14.99999999,25.30055556,60.63888889,93.751
Chacabuco,SOUTH AMERICA,19,-34.63508772,-60.47587719,65.517
Chachapoyas,SOUTH AMERICA,6,-6.223611111,-77.87361111,2215.188
Chadron,NORTH AMERICA,11,42.82954545,-103.0075758,1258.282636
Chaiyaphum,ASIA,41,15.82337398,102.0396341,182.0558537
Chake Chake,AFRICA,35.99999999,-5.219675926,39.77407407,4.181
Chalkida,EUROPE,62,38.45241935,23.62379032,218.35
Challapata,SOUTH AMERICA,5.999999999,-18.89583333,-66.775,3938.776
Chamical,SOUTH AMERICA,13,-30.35320513,-66.31474359,598.606
Champoton,NORTH AMERICA,14,19.34940476,-90.725,34.018
Chancay,SOUTH AMERICA,11,-11.55227273,-77.2719697,263.691
Chandigarh,ASIA,3878.261474,30.66533843,76.77900872,450.3472678
Chandrapur,ASIA,255,19.9479085,79.29810458,234.3158118
Changchun,ASIA,1145,43.89179039,125.2889884,265.9609163
Changde,ASIA,701.3330152,28.99403996,111.752281,216.849048
Changhua,ASIA,475.795221,24.07276908,120.4761701,179.1438659
Changling,ASIA,40,44.28166667,123.9808333,160.182625
Changping,ASIA,619.7957113,40.14333407,116.2164798,441.2525012
Changsha,ASIA,3483,28.41061346,112.5466911,86.819118
Changting,ASIA,32,25.85520833,116.3632812,577.385
Changyon,ASIA,11,38.25606061,125.0893939,77.346
Changzhi,ASIA,1357,36.26496561,113.0244719,1040.143047
Changzhou,ASIA,2603.727792,31.74483786,119.8637046,25.01441047
Channel-Port aux Basques,NORTH AMERICA,5.999999998,47.58611111,-59.15138889,30.455
Chanthaburi,ASIA,48.99999999,12.60578231,102.1112245,189.373
Chaoyang,ASIA,346,41.58184008,120.4130299,324.789
Chaozhou,ASIA,2153.9262,23.60452846,116.4600419,127.5720734
Chapadinha,SOUTH AMERICA,8,-3.733333333,-43.36354167,75.675
Chapaev,EUROPE,7.000000002,50.19166667,51.16666667,23.947
Chapayevsk,EUROPE,109,52.98325688,49.71513761,89.37149541
Chapleau,NORTH AMERICA,4.999999999,47.84666667,-83.40666667,463.309
Charata,SOUTH AMERICA,12,-27.2125,-61.19166667,105.933
Charikar,ASIA,1224.938905,34.9467922,69.29415552,2448.599479
Charleroi,EUROPE,437.0599547,50.42704202,4.469876542,143.567
Charleston1,NORTH AMERICA,574,32.91300813,-80.06466318,14.70568815
Charleston2,NORTH AMERICA,210,38.36007937,-81.70583333,320.172
Charleville,AUSTRALIA,5.999999996,-26.40138889,146.2375,348.436
Charlotte,NORTH AMERICA,1625.383179,35.25883325,-80.78563623,209.7768019
Charlottesville,NORTH AMERICA,111,38.04504505,-78.49459459,345.9266108
Charlottetown,NORTH AMERICA,55,46.26666667,-63.13939394,8.868
Charters Towers,AUSTRALIA,12,-20.07013889,146.2604167,263.022
Chascomus,SOUTH AMERICA,27,-35.56265432,-58.00771605,16.56066667
Chattanooga,NORTH AMERICA,454,35.04531938,-85.23709618,391.0593252
Chau Doc,ASIA,1076.890906,10.62959857,105.108704,12.61328927
Chauk,ASIA,28.99999999,20.89885057,94.82557471,287.648
Cheboksary,EUROPE,171,56.13455166,47.2454191,106.109
Chegdomyn,ASIA,1.000000001,51.13333333,133.025,769.252
Chelyabinsk,ASIA,594,55.16391695,61.47013187,204.489
Chemnitz,EUROPE,313,50.84438232,12.86158147,497.428
Chengde,ASIA,135,40.9554321,117.9220988,576.2350999
Chengdu,ASIA,32698.62167,30.12626281,104.317204,616.0481691
Chennai,ASIA,14376.50867,12.65026934,79.59941595,120.0568151
Chenzhou,ASIA,39.99999999,25.80729167,113.01625,563.0608873
Cheongju,ASIA,359.2526073,36.66436802,127.4388542,210.275
Chepes,SOUTH AMERICA,8.000000002,-31.33645833,-66.59375,534.496
Cherbourg,EUROPE,84.00000001,49.63988095,-1.630853175,21.618
Cheremkhovo,ASIA,65.99999998,53.14280303,103.0963384,526.823
Cherepanovo,ASIA,25.99999999,54.22948718,83.36378205,226.172
Cherepovets,EUROPE,169,59.14738659,37.8949211,152.6246154
Cherkasy,EUROPE,133,49.42036341,32.06303258,107.750485
Cherkessk,EUROPE,94,44.23484043,42.04148936,514.7483511
Cherlak,ASIA,15.00000001,54.16166667,74.80277778,103.876
Chernihiv,EUROPE,126,51.50363757,31.27665344,125.332
Chernivtsi,EUROPE,189,48.29902998,25.95674603,326.9854603
Chernogorsk,ASIA,8,53.82083333,91.22083333,353.622
Chernyakhovsk,EUROPE,42.00000001,54.64285714,21.81646825,52.144
Chester,EUROPE,90.99999999,53.19954212,-2.888919414,109.99
Chesterfield Inlet,NORTH AMERICA,1,63.35,-90.70833333,19.679
Chetumal,NORTH AMERICA,33,18.51868687,-88.30707071,41.388
Chevery,NORTH AMERICA,2.000000001,50.475,-59.6125,45.228
Cheyenne,NORTH AMERICA,114,41.14502924,-104.8105263,1627.283
Chiai,ASIA,1299.08423,23.59657063,120.4276477,522.042
Chiang Mai,ASIA,219,18.81484018,98.98740487,681.7264249
Chiang Rai,ASIA,59,19.91553672,99.83319209,672.755
Chibemba,AFRICA,3,-15.74722222,14.08055556,1300.531
Chibia,AFRICA,3.000000001,-15.18055556,13.68888889,1099.981
Chicago,NORTH AMERICA,7502,41.87127433,-87.90940638,208.2221512
Chiclayo,SOUTH AMERICA,67.48682318,-6.762270486,-79.84898263,939.863
Chico,NORTH AMERICA,98,39.74863946,-121.8397109,476.367
Chicoutimi,NORTH AMERICA,68,48.42867647,-71.07107843,280.224
Chifeng,ASIA,334,42.29343812,118.8941367,981.5159432
Chignik,NORTH AMERICA,1,56.3,-158.4083333,174.252
Chihuahua,NORTH AMERICA,227,28.6623348,-106.0864537,1886.130456
Chilca,SOUTH AMERICA,0.999999999,-12.525,-76.75,1529.353
Childress,NORTH AMERICA,12,34.42986111,-100.2166667,630.013
Chilecito,SOUTH AMERICA,11,-29.16136364,-67.49924242,1651.146
Chililabombwe,AFRICA,21,-12.36309524,27.83690476,1292.997
Chillan,SOUTH AMERICA,54.99999999,-36.60818182,-72.11181818,173.709
Chilpancingo,NORTH AMERICA,36,17.56203704,-99.50509259,1194.454
Chimbote,SOUTH AMERICA,60.99999999,-9.079098361,-78.5670765,279.3629754
Chimboy,ASIA,50.99999999,42.93186275,59.77320261,71.76
Chimoio,AFRICA,61,-19.1010929,33.4670765,432.288
Chinandega,NORTH AMERICA,42.99999999,12.65077519,-87.15310078,16.865
Chincha Alta,SOUTH AMERICA,42,-13.41488095,-76.14285714,115.439
Chingola,AFRICA,53.99999999,-12.53657407,27.86481481,1292.997
Chinhoyi,AFRICA,14,-17.36547619,30.18869048,1301.111
Chiniot,ASIA,2717.272929,31.8153591,73.07733045,196.0329231
Chinsali,AFRICA,0.999999999,-10.55,32.05833333,1122.403
Chipata,AFRICA,46,-13.63152174,32.63985507,963.811
Chiquinquira,SOUTH AMERICA,11,5.616666667,-73.82121212,2542.346
Chirala,ASIA,221,15.89419306,80.4096908,7.578567417
Chiramba,AFRICA,1.000000002,-16.89166667,34.65833333,213.638
Chirchiq,ASIA,121.268067,41.45197918,69.55302283,830.914
Chiredzi,AFRICA,10,-21.03416667,31.67166667,425.426
Chisinau,EUROPE,185,47.02135135,28.83603604,158.6015208
Chistopol,EUROPE,39,55.36880342,50.64102564,126.289
Chita,ASIA,114,52.04605263,113.4747807,979.3616386
Chitipa,AFRICA,15,-9.696666667,33.27111111,1336.636
Chitre,SOUTH AMERICA,27,7.973148148,-80.44320988,128.527
Chittagong,ASIA,5586.99154,22.63494068,91.55954254,54.17910845
Chitungwiza,AFRICA,49,-18.00646259,31.06768707,1343.009701
Chivilcoy,SOUTH AMERICA,32,-34.89713542,-60.02317708,63.10143751
Chlef,AFRICA,489,36.15698705,1.329055896,196.399
Cholpon Ata,ASIA,18.99999999,42.65438596,77.06754386,2251.791
Choluteca,NORTH AMERICA,31,13.30994624,-87.18010753,340.885
Choma,AFRICA,34,-16.80367647,26.97426471,1162.970235
Chon Buri,ASIA,146,13.36740868,100.9878995,28.25911638
Chonchi,SOUTH AMERICA,1,-42.6,-73.80833333,80.709
Chone,SOUTH AMERICA,15,-0.693333333,-80.09833333,70.335
Chongjin,ASIA,126,41.77294974,129.744246,603.745
Chongju,ASIA,87.00000001,39.68860153,125.2027778,71.874
Chongqing,ASIA,93360,30.25290988,105.1855332,544.3145925
Chos Malal,SOUTH AMERICA,5,-37.375,-70.275,1486.764
Chosan,ASIA,8.000000002,40.83333333,125.8020833,404.012
Chosica,SOUTH AMERICA,2,-11.93333333,-76.7125,3665.004
Chota,SOUTH AMERICA,5,-6.553333333,-78.655,2488.59
Choybalsan,ASIA,44,48.0844697,114.5246212,771.426
Christchurch,POLYNESIA,267,-43.52284644,172.6141698,162.888
Christiansted,SOUTH AMERICA,49,17.7377551,-64.75102041,1.206
Chukai,ASIA,44.00000002,4.249621212,103.4340909,36.676
Chulucanas,SOUTH AMERICA,9,-5.091666667,-80.16666667,93.293
Chumbicha,SOUTH AMERICA,4,-28.85416667,-66.2375,1095.502
Chumphon,ASIA,39,10.50534188,99.15491453,24.618
Chuncheon,ASIA,93.99999999,37.90328014,127.7380319,211.868
Chungli,ASIA,741.2436591,24.97066962,121.2066719,584.5129463
Chuquicamata,SOUTH AMERICA,8,-22.30833333,-68.928125,3109.668
Chur,EUROPE,23,46.8634058,9.521014493,1786.03
Chusovoy,EUROPE,32,58.29348958,57.81979167,242.211
Chuxiong,ASIA,100,25.0575,101.5330833,1947.25634
Ciego de Avila,NORTH AMERICA,33,21.84722222,-78.76590909,29.137
Cienaga,SOUTH AMERICA,20,11.01583333,-74.24458333,49.83815002
Cienfuegos,NORTH AMERICA,36,22.16041667,-80.43518519,60.015
Cilacap,MALAY ARCHIPELAGO,3142.336717,-7.538526786,109.1991393,300.4856303
Cincinnati,NORTH AMERICA,1881,39.2017411,-84.49062112,264.5352974
Cirebon,MALAY ARCHIPELAGO,2185.493943,-6.804360058,108.4821287,94.98588817
Ciudad Bolivar,SOUTH AMERICA,113,8.105383481,-63.54874631,111.891
Ciudad Camargo,NORTH AMERICA,20,27.69208333,-105.1729167,1456.235
Ciudad Constitucion,NORTH AMERICA,20,25.03708333,-111.66125,204.338
Ciudad Cortes,SOUTH AMERICA,5.000000002,8.97,-83.52666667,85.062
Ciudad Guayana,SOUTH AMERICA,94,8.35212766,-62.64929078,141.483
Ciudad Guzman,NORTH AMERICA,26,19.71089744,-103.4708333,1317.319
Ciudad Hidalgo,NORTH AMERICA,35,19.69357143,-100.5419048,1940.462
Ciudad Jurez,NORTH AMERICA,507.345812,31.68617772,-106.3666367,1253.326
Ciudad Madero,NORTH AMERICA,41.69973312,22.30152685,-97.83388947,4.571
Ciudad Mante,NORTH AMERICA,31,22.74865591,-98.98172043,213.3706291
Ciudad Obregon,NORTH AMERICA,102,27.49452614,-109.9421569,270.877
Ciudad Valles,NORTH AMERICA,46,21.99601449,-99.01141304,695.3014065
Ciudad Victoria,NORTH AMERICA,83,23.7437751,-99.15220884,1409.866
Ciudad del Carmen,NORTH AMERICA,29,18.65373563,-91.81522989,8.001
Ciudad del Este,SOUTH AMERICA,31,-25.40053763,-54.64946237,262.404
Civitavecchia,EUROPE,34.99999999,42.11047619,11.78547619,179.262
Clare,AUSTRALIA,7,-33.83333333,138.6083333,333.821
Clarksburg,NORTH AMERICA,45,39.27851852,-80.33203704,360.923
Clarksville,NORTH AMERICA,245,36.57540816,-87.36935374,179.84
Cleburne,NORTH AMERICA,47,32.35319149,-97.40212766,247.938
Clermont-Ferrand,EUROPE,243,45.81848422,3.091666667,732.8454897
Cleveland,NORTH AMERICA,3568,41.2997898,-81.61803064,264.7723459
Cliza,SOUTH AMERICA,19,-17.58377193,-65.93903509,2503.381
Cloncurry,AUSTRALIA,4,-20.70416667,140.5041667,197.362
Clovis,NORTH AMERICA,58,34.41652299,-103.2027299,1341.395
Cluj-Napoca,EUROPE,90,46.7812963,23.59842593,602.641
Coalcoman,NORTH AMERICA,4.999999999,18.78166667,-103.1666667,420.182
Coari,SOUTH AMERICA,8.999999997,-4.088888889,-63.14722222,57.842
Coatzacoalcos,NORTH AMERICA,84.00000001,18.13720238,-94.43313492,54.223
Cobalt,NORTH AMERICA,3.999999999,47.40208333,-79.68958333,279.081
Coban,NORTH AMERICA,20,15.47166667,-90.38416667,1025.899
Cobija,SOUTH AMERICA,21,-11.01587302,-68.75912698,241.0862024
Cobram,AUSTRALIA,5.000000003,-35.915,145.645,107.846
Coburg,EUROPE,84,50.26547619,10.97628968,412.2011726
Cochabamba,SOUTH AMERICA,298,-17.38092841,-66.19972036,3540.341
Cochin,ASIA,2675.078248,10.29085533,76.26645043,214.8196701
Cochrane,NORTH AMERICA,11,49.06590909,-81.02651515,244.556
Cody,NORTH AMERICA,17,44.52892157,-109.0558824,2408.398
Coffeyville,NORTH AMERICA,21,37.04444444,-95.63769841,284.773
Coffs Harbour,AUSTRALIA,28,-30.28958333,153.110119,8.351
Coihaique,SOUTH AMERICA,29,-45.57413793,-72.07327586,794.525
Coimbatore,ASIA,1012,11.0713027,77.13373682,507.0553713
Coimbra,EUROPE,88,40.22566288,-8.436931818,187.738
Colac,AUSTRALIA,8.000000005,-38.34375,143.5854167,121.029
Colesberg,AFRICA,5,-30.71833333,25.09333333,1394.74
Colima,NORTH AMERICA,61,19.25819672,-103.7277322,1317.319
Colinas,SOUTH AMERICA,2,-6.025,-44.25416667,315.863
Collipulli,SOUTH AMERICA,7.999999998,-37.94895833,-72.440625,239.581
Colombo,ASIA,7351,7.016973881,80.21569061,235.6410132
Colon1,SOUTH AMERICA,35,9.353571429,-79.88404762,88.235
Colon2,NORTH AMERICA,15,22.72166667,-80.9,60.015
Colorado Springs,NORTH AMERICA,559,38.8555158,-104.7882677,1719.983606
Columbia1,NORTH AMERICA,228,37.88282164,-90.64758772,241.6961833
Columbia2,NORTH AMERICA,781,35.01573837,-83.27903329,144.4008178
Columbia3,NORTH AMERICA,626,34.04156017,-81.03636848,119.7475238
Columbus1,NORTH AMERICA,352,32.49102746,-84.96768466,166.7938324
Columbus2,NORTH AMERICA,1427,40.02085961,-82.98840808,296.1567928
Comallo,SOUTH AMERICA,3.000000001,-41.025,-70.26666667,1122.857
Comandante Fontana,SOUTH AMERICA,7.999999999,-25.32708333,-59.68541667,98.945
Comayagua,NORTH AMERICA,28,14.46160714,-87.64434524,1038.052
Combarbala,SOUTH AMERICA,3.000000002,-31.17222222,-71.00555556,837.8983313
Comilla,ASIA,10899.06804,23.5364339,91.15882367,34.53352006
Como,EUROPE,1262.778601,45.73169634,9.049763598,326.6801334
Comodoro Rivadavia,SOUTH AMERICA,192,-45.85490451,-67.52521701,320.132
Comondante Luis Piedrabuena,SOUTH AMERICA,1,-49.975,-68.91666667,142.376
Compostela,NORTH AMERICA,8.999999999,21.24074074,-104.9055556,1101.272
Conakry,AFRICA,218,9.637270642,-13.59281346,54.713
Concepcion del Uruguay,SOUTH AMERICA,27,-32.47839506,-58.25061728,34.213
Concepcion1,SOUTH AMERICA,214,-36.79805296,-73.07698598,9.241978966
Concepcion2,SOUTH AMERICA,22,-23.40037879,-57.44166667,89.867
Concord,NORTH AMERICA,65,43.20846154,-71.53346154,266.642
Concordia1,SOUTH AMERICA,46.33143238,-31.37556356,-58.03168578,53.413
Concordia2,SOUTH AMERICA,23,-27.22934783,-52.03188406,594.665
Conselheiro Lafaiete,SOUTH AMERICA,59,-20.65819209,-43.79378531,899.648
Constanta,EUROPE,79.99999999,44.18385417,28.61260417,69.498
Constantine,AFRICA,168,36.37197421,6.615674603,557.274
Constitucion,SOUTH AMERICA,16,-35.33020833,-72.41666667,123.112
Contamana,SOUTH AMERICA,6.000000001,-7.345833333,-75.00833333,306.8861667
Conway,NORTH AMERICA,79,35.09166667,-92.45611814,248.533
Cooma,AUSTRALIA,8.999999999,-36.225,149.125,623.767
Coos Bay,NORTH AMERICA,51,43.38316993,-124.2349673,29.265
Copenhagen,EUROPE,1188,55.7197601,12.42602413,10.27170236
Copiapo,SOUTH AMERICA,29,-27.36666667,-70.32902299,717.224
Coquimbo,SOUTH AMERICA,26,-29.96346154,-71.34455128,213.413
Coracora,SOUTH AMERICA,5.999999999,-15.01527778,-73.78472222,2916.123
Coral Gables,NORTH AMERICA,578.8481726,25.69678822,-80.36390832,3.51
Coral Springs,NORTH AMERICA,768.3745665,26.29939506,-80.21259088,6.841
Cordoba1,SOUTH AMERICA,517,-31.3841715,-64.204755,972.741
Cordoba2,EUROPE,134,37.8846393,-4.813121891,443.964
Cordoba3,NORTH AMERICA,55,18.89954545,-96.95621212,576.8456638
Cordova,NORTH AMERICA,4,60.55208333,-145.7666667,387.856
Cork,EUROPE,126,51.89530423,-8.464880952,28.363
Corner Brook,NORTH AMERICA,41,48.95386179,-57.95386179,351.4631219
Cornwall,NORTH AMERICA,77.99999999,45.04123932,-74.74294872,130.347
Coro,SOUTH AMERICA,61,11.41543716,-69.66680328,123.3453114
Coronel,SOUTH AMERICA,48.99999999,-36.98877551,-73.16292517,79.54036738
Coronel Bogado,SOUTH AMERICA,9.000000002,-27.15833333,-56.24166667,88.699
Coronel Oviedo,SOUTH AMERICA,29,-25.44913793,-56.44367816,167.153
Coronel Suarez,SOUTH AMERICA,19,-37.45350877,-61.93157895,222.974
Corpus Christi,NORTH AMERICA,206,27.74716828,-97.41334951,10.843
Corrientes,SOUTH AMERICA,97,-27.48204467,-58.80463918,60.289
Corum,ASIA,73,40.55958904,34.94269406,960.217
Corumba,SOUTH AMERICA,45,-19.01259259,-57.64407407,113.9835111
Corvallis,NORTH AMERICA,67,44.58022388,-123.274005,231.415
Cotabato,MALAY ARCHIPELAGO,76.99999999,7.221969697,124.2436147,505.86
Cotonou,AFRICA,426,6.426643192,2.431729264,29.219
Cottbus,EUROPE,117,51.76111111,14.33148148,151.537
Council Bluffs,NORTH AMERICA,129.0028627,41.26520391,-95.87846056,368.381
Courtenay,NORTH AMERICA,33,49.69116162,-125.0007576,414.0122122
Coventry,EUROPE,317,52.44284963,-1.502287066,104.362
Covilha,EUROPE,27,40.28395062,-7.50308642,631.128
Covington,NORTH AMERICA,685.1281003,39.07132131,-84.59369215,262.3819041
Cowell,AUSTRALIA,2,-33.67916667,136.9166667,179.139
Cowra,AUSTRALIA,13,-33.82692308,148.6820513,428.102
Cozumel,NORTH AMERICA,25,20.513,-86.945,0.668
Craig,NORTH AMERICA,17,40.52156863,-107.5544118,2289.508
Craiova,EUROPE,94,44.32154255,23.7910461,197.646
Cranbourne,AUSTRALIA,416.3906,-38.04141454,145.1988595,169.0598036
Cranbrook,NORTH AMERICA,38,49.51732456,-115.7690789,1401.043
Crateus,SOUTH AMERICA,13,-5.173076923,-40.66987179,445.077
Crato,SOUTH AMERICA,133,-7.233646617,-39.36146617,603.121
Crescent City,NORTH AMERICA,19,41.77192982,-124.2070175,32.72
Crestview,NORTH AMERICA,54,30.75385802,-86.5683642,29.007
Criciuma,SOUTH AMERICA,119,-28.68571429,-49.37065826,559.78
Cristalina,SOUTH AMERICA,14,-16.76607143,-47.61488095,906.54
Crookston,NORTH AMERICA,20,47.77916667,-96.61125,297.989
Crotone,EUROPE,38.00000001,39.08969298,17.10153509,5.16
Cruzeiro do Sul,SOUTH AMERICA,25,-7.62,-72.682,205.123
Cuamba,AFRICA,41,-14.79207317,36.52825203,651.676
Cuauhtemoc,NORTH AMERICA,39,28.41153846,-106.8619658,1903.239
Cubal,AFRICA,5.000000002,-13.03,14.24166667,1358.129
Cucuta,SOUTH AMERICA,137,7.890693431,-72.50158151,1799.005
Cuddalore,ASIA,1732.899141,11.62764193,79.53551193,39.48
Cuenca,SOUTH AMERICA,94,-2.881826241,-78.99406028,1708.875404
Cuencame,NORTH AMERICA,1.999999999,24.87083333,-103.7,1927.815
Cuernavaca,NORTH AMERICA,365.1191866,18.84402055,-99.22700529,1381.466479
Cuevo,SOUTH AMERICA,0.999999999,-20.45,-63.525,970.692
Cuiaba,SOUTH AMERICA,349,-15.61595033,-56.09651385,280.6199699
Culiacan,NORTH AMERICA,185,24.80675676,-107.4077027,49.222
Cumana,SOUTH AMERICA,59,10.45564972,-64.16567797,149.411
Cumberland,NORTH AMERICA,29,39.64626437,-78.76465517,371.049
Curanilahue,SOUTH AMERICA,13,-37.47371795,-73.3474359,178.48
Curepipe,AFRICA,91.16110285,-20.28366971,57.49796423,35.14912633
Curico,SOUTH AMERICA,40,-34.96958333,-71.22875,279.14366
Curitiba,SOUTH AMERICA,1095,-25.44595129,-49.24285388,889.718
Curvelo,SOUTH AMERICA,26,-18.75352564,-44.43782051,692.179
Cusco,SOUTH AMERICA,68,-13.51740196,-71.96446078,3634.476294
Cutral Co,SOUTH AMERICA,45,-38.93037037,-69.21722222,717.945
Cuttack,ASIA,11785.37376,20.60201081,86.08801703,84.8953377
Cyangugu,AFRICA,794.3388498,-2.621399004,29.03866157,1629.719741
Da Lat,ASIA,89.99999999,11.96740741,108.4382407,543.1813167
Da Nang,ASIA,398,15.95437605,108.1984506,111.7978736
Daan,ASIA,31,45.49704301,124.2790323,130.641
Dabou,AFRICA,21,5.330555556,-4.378968254,43.036
Daegu,ASIA,554,35.8698556,128.6413357,176.538839
Daejeon,ASIA,380,36.37164474,127.3751535,210.275
Dagupan,MALAY ARCHIPELAGO,2309.413944,15.95782967,120.4821741,322.5355106
Dakar,AFRICA,365,14.74570776,-17.33424658,2.876
Dalandzadgad,ASIA,12.00000001,43.57222222,104.4208333,1600.519
Dalby,AUSTRALIA,13,-27.17948718,151.2589744,427.266
Dalhart,NORTH AMERICA,12,36.06458333,-102.5208333,1245.016
Dali1,ASIA,1883.457466,34.74731217,109.8925015,734.4240285
Dali2,ASIA,116,25.76199713,100.145546,2113.909
Dalian,ASIA,652,38.9987091,121.648888,14.56760974
Dallas,NORTH AMERICA,4624,32.83573025,-96.97270761,197.3077939
Dalnegorsk,ASIA,10.99999999,44.55606061,135.5090909,469.69
Dalnerechensk,ASIA,22,45.93295455,133.7318182,116.703
Daloa,AFRICA,38,6.884429825,-6.449122807,225.273
Dalton,NORTH AMERICA,114,34.7628655,-84.97273392,389.5610526
Damanhr,AFRICA,249,31.07279116,30.39528112,1.432535745
Damascus,ASIA,985,33.48365482,36.28222504,931.903
Dandong,ASIA,208.4754339,40.16172425,124.3633375,236.279
Dangriga,NORTH AMERICA,2.000000002,16.97083333,-88.225,143.047
Danjiangkou,ASIA,1,32.525,111.4916667,294.958
Danville,NORTH AMERICA,82,36.59471545,-79.41747967,219.085
Daqing,ASIA,572,46.59124417,124.960373,146.6949773
Dar es Salaam,AFRICA,248,-6.829267473,39.23501344,14.378
Darnah,AFRICA,22,32.76136364,22.6375,240.225
Darregueira,SOUTH AMERICA,6.999999997,-37.68571429,-63.16666667,158.484
Darwin,AUSTRALIA,71.99999999,-12.40277778,130.8700231,7.062
Dasoguz,ASIA,102,41.85612745,59.93521242,89.71821569
Datong,ASIA,408,40.06374592,113.2481005,1340.1625
Daugavpils,EUROPE,76,55.88344298,26.51787281,155.257
Dauphin,NORTH AMERICA,21,51.15436508,-100.0547619,439.67
Davangere,ASIA,94,14.47296099,75.92296099,597.468
Davao,MALAY ARCHIPELAGO,348,7.133931992,125.5662596,372.3198566
Davenport,NORTH AMERICA,359,41.52047354,-90.53458682,214.235
David,SOUTH AMERICA,49,8.424489796,-82.43435374,450.172
Dawei,ASIA,33,14.09242424,98.20176768,365.203
Dawmat al Jandal,ASIA,16,29.81145833,39.85677083,749.037
Dawson Creek,NORTH AMERICA,26,55.7599359,-120.2397436,873.7
Dayr az Azwr,ASIA,67.99999999,35.33492647,40.15551471,256.342
Dayton,NORTH AMERICA,854,39.75046838,-84.17425839,265.895281
Daytona Beach,NORTH AMERICA,303,29.20385039,-81.04642464,15.63854456
De Aar,AFRICA,16,-30.65208333,24.01822917,1321.9115
Debre Birhan,AFRICA,840.453256,9.629485798,39.30137989,2189.694329
Debre Markos,AFRICA,31,10.34301075,37.72688172,2188.684
Debrecen,EUROPE,118,47.5305791,21.63629943,102.581
Decatur,NORTH AMERICA,107,39.87313084,-88.95514019,195.6293178
Deer Lake,NORTH AMERICA,11,49.18484848,-57.43181818,286.335
Dehibat,AFRICA,3,32.01111111,10.69722222,291.884
Dehra Dun,ASIA,677.5320333,30.38187103,77.89019742,1254.844938
Del Rio,NORTH AMERICA,41,29.38028455,-100.9054878,441.482
Delano,NORTH AMERICA,34,35.77034314,-119.247549,247.126
Delhi,ASIA,47799.98249,29.29484106,77.67558977,307.8605967
Delicias,NORTH AMERICA,49.00395198,28.20238143,-105.4719379,1305.756
Demba,AFRICA,9.000000001,-5.490740741,22.26296296,588.09
Dembi Dolo,AFRICA,7.000000001,8.529761905,34.7952381,914.571
Deming,NORTH AMERICA,24,32.26458333,-107.7600694,1496.198
Dengzhou,ASIA,5877.431903,32.73689169,112.0069564,269.4666479
Deniliquin,AUSTRALIA,6.999999996,-35.52857143,144.952381,84.768
Denizli,ASIA,172,37.79219961,29.08866279,1125.349948
Denow,ASIA,267,38.27031835,67.88701623,1795.415
Denpasar,MALAY ARCHIPELAGO,95.93673575,-8.649106821,115.230945,164.818
Denton,NORTH AMERICA,170,33.19279412,-97.10892157,266.496
Denver,NORTH AMERICA,2035,39.73535627,-104.9883497,2251.531447
Dera Ghazi Khan,ASIA,1831.819243,29.90781504,70.62041916,271.7635893
Dera Ismail Khan,ASIA,518.045714,31.95600465,70.92657637,384.3347459
Derbent,EUROPE,36.00000001,42.06712963,48.28796296,-16.372
Derzhavinsk,ASIA,17,51.11127451,66.31470588,277.116
Des Moines,NORTH AMERICA,491,41.61843177,-93.66327223,284.741
Desaguadero,SOUTH AMERICA,5,-16.56333333,-69.04333333,4098.724
Dese,AFRICA,73,11.17648402,39.66210046,2278.798
Detroit,NORTH AMERICA,4723,42.47139883,-83.19841732,240.7286485
Devils Lake,NORTH AMERICA,17,48.11617647,-98.86421569,466.446
Devonport,AUSTRALIA,27,-41.18209877,146.357716,482.565
Deyang,ASIA,6282.988322,31.02371737,104.5150776,680.2195122
Dezful,ASIA,110,32.41325758,48.37916667,495.299
Dezhou,ASIA,4560.572581,37.65263583,116.2470257,20.25485661
Dhaka,ASIA,64023.96697,24.45834876,90.23001544,44.42325343
Dhamar,ASIA,142,14.63163146,44.36126761,2168.614
Dhanbad,ASIA,12246.95091,23.90271082,86.60010153,198.3945955
Dhule,ASIA,188,20.93333333,74.78466312,483.2790224
Diamantina,SOUTH AMERICA,8,-18.240625,-43.60520833,975.338
Dibaya,AFRICA,0.999999999,-6.516666667,22.85833333,761.761
Dibrugarh,ASIA,84,27.47242063,94.93501984,403.43825
Dickinson,NORTH AMERICA,30,46.8925,-102.7938889,769.238
Dieppe,EUROPE,57,49.91798246,1.095614035,129.442
Diffa,AFRICA,10,13.31666667,12.60416667,313.524
Digby,NORTH AMERICA,7,44.625,-65.76428571,101.657
Dijon,EUROPE,158,47.31888186,5.048734177,296.048345
Dila,AFRICA,3354.463818,6.616823729,38.47505636,2083.645048
Dili,MALAY ARCHIPELAGO,32,-8.554947917,125.5609375,313.717
Dillingham,NORTH AMERICA,4,59.04583333,-158.4708333,119.069
Dillon,NORTH AMERICA,9.000000001,45.2212963,-112.6361111,1909.039
Dilolo,AFRICA,8,-10.67916667,22.3375,1048.277
Dimbokro,AFRICA,12,6.653472222,-4.710416667,124.914
Dimitrovgrad,EUROPE,69.99999999,54.23071429,49.59202381,103.19
Dindigul,ASIA,2525.629317,10.64614464,77.8498709,533.0409692
Dingzhou,ASIA,6220.695946,38.40359173,115.0427054,110.0542744
Diourbel,AFRICA,34,14.65833333,-16.2377451,20.706
Dire Dawa,AFRICA,48.99999999,9.62329932,41.84829932,1453.077
Dirj,AFRICA,1,30.16666667,10.45833333,460.671
Divinopolis,SOUTH AMERICA,122,-20.14132514,-44.89221311,943.552
Diyarbakir,ASIA,139,37.93639089,40.18141487,773.8830604
Djambala,AFRICA,8,-2.542708333,14.759375,634.765
Djanet,AFRICA,1,24.55833333,9.483333333,1212.043
Djelfa,AFRICA,54,34.67700617,3.257253086,1018.023
Djenne,AFRICA,2.000000002,13.90833333,-4.5625,304.233
Djibouti,AFRICA,50,11.57566667,43.125,40.036
Djougou,AFRICA,18,9.706944444,1.660648148,397.13
Dnipropetrovsk,EUROPE,407,48.4752457,35.00315315,108.6980516
Doba,AFRICA,9.999999997,8.6625,16.85,436.477
Dobrich,EUROPE,30.00000001,43.57805556,27.82527778,201.955
Dodge City,NORTH AMERICA,35.00000001,37.76428571,-100.0238095,819.3593143
Dodoma,AFRICA,65,-6.158076923,35.74333333,975.83
Doha,ASIA,348,25.28532088,51.46427203,15.455
Dolbeau,NORTH AMERICA,26,48.88814103,-72.22852564,307.767
Dolinsk,ASIA,13,47.33141026,142.7884615,171.307
Dolo Bay,AFRICA,16.00000001,4.200520833,42.04583333,285.92
Dolores,SOUTH AMERICA,21,-36.30753968,-57.68452381,5.576
Dombarovskiy,ASIA,8.999999998,50.76666667,59.53796296,298.036
Dondo1,AFRICA,25,-19.60966667,34.73533333,56.466
Dondo2,AFRICA,2.999999999,-9.680555556,14.41944444,325.83
Donegal,EUROPE,6.999999998,54.6547619,-8.114285714,80.644
Donetsk,EUROPE,781,48.00811993,37.8286385,151.0299587
Dong Hoi,ASIA,143,17.50710956,106.5462704,201.8113056
Dongola,AFRICA,4.999999999,19.18333333,30.46833333,247.557
Dortmund,EUROPE,1630.254101,51.50803986,7.485966298,173.175
Dosso,AFRICA,15,13.055,3.193888889,250.914
Dothan,NORTH AMERICA,122,31.23142076,-85.41639344,102.333
Douala,AFRICA,155,4.059247312,9.720591398,356.687429
Douglas1,NORTH AMERICA,30,31.50527778,-82.85805556,55.482
Douglas2,NORTH AMERICA,15,42.76111111,-105.3883333,1848.214
Douglas3,EUROPE,27,54.16851852,-4.486111111,31.013
Douglas4,NORTH AMERICA,25.48074676,31.3524289,-109.5402246,1437.891
Dourados,SOUTH AMERICA,84,-22.2281746,-54.80089286,370.107
Dover1,NORTH AMERICA,128,39.15514323,-75.53463542,33.883
Dover2,EUROPE,44.99999999,51.145,1.293148148,8.092
Drammen,EUROPE,163,59.75864008,10.07648262,169.0527055
Dresden,EUROPE,683,51.06182284,13.71750854,193.9742006
Drobeta-Turnu Severin,EUROPE,38,44.63048246,22.64364035,313.845
Drogheda,EUROPE,30,53.71833333,-6.3525,94.115
Drohobych,EUROPE,92,49.32871377,23.51847826,370.571
Drummondville,NORTH AMERICA,80,45.87385417,-72.4975,165.613
Dryden,NORTH AMERICA,18,49.78611111,-92.8412037,407.543
Dubayy,ASIA,525,25.27580952,55.37263492,31.147
Dubbo,AUSTRALIA,56,-32.24122024,148.6255952,354.462
Dublin1,NORTH AMERICA,54,32.54228395,-82.92021605,80.788
Dublin2,EUROPE,681,53.33388399,-6.28314978,94.115
Dubrovnik,EUROPE,30,42.66333333,18.09444444,430.845
Dubuque,NORTH AMERICA,83,42.50933735,-90.70351406,276.186
Dudinka,ASIA,22,69.40871212,86.19886364,63.73
Duisburg,EUROPE,967.5214934,51.4512416,6.70102599,41.452
Duitama,SOUTH AMERICA,22,5.824242424,-73.03068182,2542.346
Duluth,NORTH AMERICA,112.0183489,46.80996117,-92.11948056,351.842
Duma,ASIA,204.0118204,33.55221801,36.42605397,931.903
Dumas,NORTH AMERICA,18,35.86851852,-101.9717593,1009.076
Dumfries,EUROPE,46.99999999,55.07606383,-3.613120567,248.96
Dumyat,AFRICA,325.7245946,31.3536619,31.72839561,1.24
Dund-Us,ASIA,15,48.00333333,91.63833333,2033.215094
Dundalk,EUROPE,42,53.99781746,-6.397222222,103.3191714
Dundee,EUROPE,124,56.48057796,-2.958534946,136.9383952
Dundo,AFRICA,16,-7.38125,20.82083333,780.75
Dunedin,POLYNESIA,85.99999999,-45.88488372,170.4906008,299.699
Dunhua,ASIA,73.99999999,43.36441441,128.2290541,577.341
Dunhuang,ASIA,75,40.13766667,94.62855556,1262.024
Duque de Caxias,SOUTH AMERICA,462.0419251,-22.76162657,-43.32882388,415.486
Durango1,NORTH AMERICA,111,24.03828829,-104.6524775,2034.141412
Durango2,NORTH AMERICA,34,37.28406863,-107.8752451,2860.801
Durazno,SOUTH AMERICA,19,-33.38289474,-56.52675439,108.255
Durban,AFRICA,744,-29.83182124,30.93385977,756.0021073
Durham,NORTH AMERICA,481,35.97163895,-78.93778586,101.741343
Durres,EUROPE,55.99999999,41.32619048,19.47514881,132.724
Dushanbe,ASIA,617,38.54692058,68.86066991,1547.54825
Dyatkovo,EUROPE,35,53.60380952,34.33571429,191.869
Dzaoudzi,AFRICA,6.999999996,-12.78571429,45.27142857,4.186
Dzerzhinsk,EUROPE,242,56.25354683,43.50103306,103.812
Dzhankoy,EUROPE,42,45.7156746,34.38968254,69.023
Dzuunharaa,ASIA,19,48.85482456,106.4561404,1268.137
Dsseldorf,EUROPE,3580.710253,51.38278578,6.839655605,82.35795543
Eagle,NORTH AMERICA,1,64.79166667,-141.2,788.167
Eagle Pass,NORTH AMERICA,50.14063716,28.71455532,-100.4913096,288.658
East London,AFRICA,213,-32.96600156,27.82676056,598.8086774
Eastmain,NORTH AMERICA,1.999938965,52.23750025,-78.52083403,32.909
Eau Claire,NORTH AMERICA,124,44.81458333,-91.48763441,289.664
Ebolowa,AFRICA,15,2.91,11.145,630.17
Echuca,AUSTRALIA,18,-36.1212963,144.749537,154.78
Ed Damazin,AFRICA,35.00000001,11.79928571,34.35142857,563.456
Ed Dueim,AFRICA,23,14.00615942,32.30181159,394.7265761
EdDamer,AFRICA,17,17.59509804,33.96372549,414.793
Edea,AFRICA,7.999999998,3.798958333,10.12395833,269.999
Edinburg,NORTH AMERICA,647,26.236373,-98.20416023,75.6074204
Edinburgh,EUROPE,362,55.92656538,-3.185013812,248.96
Edirne,EUROPE,46,41.67753623,26.55797101,155.931
Edmonton,NORTH AMERICA,694,53.54769452,-113.5086215,710.65
Edmundston,NORTH AMERICA,46,47.39257246,-68.35706522,304.964
Egilsstadir,NORTH AMERICA,7,65.2702381,-14.40238095,290.531
Eindhoven,EUROPE,262,51.45572519,5.469656489,22.612
Eirunepe,SOUTH AMERICA,15,-6.649444444,-69.87611111,155.351
Ekibastuz,ASIA,47,51.73049645,75.31897163,233.598
El Alamein,AFRICA,3.999999998,30.83125,28.95625,57.664
El Arish,AFRICA,33,31.12373737,33.81388889,3.804
El Banco,SOUTH AMERICA,19,9.005701754,-73.96754386,460.6048739
El Bayadh,AFRICA,17,33.68627451,1.010294118,1178.884824
El Calafate,SOUTH AMERICA,11,-50.33484848,-72.26742424,667.486
El Carmen de Bolivar,SOUTH AMERICA,12,9.723611111,-75.12430556,83.722
El Centro,NORTH AMERICA,44,32.79450758,-115.5685606,181.637
El Daba,AFRICA,8,31.02916667,28.44166667,1.72
El Dorado1,NORTH AMERICA,43,33.21724806,-92.66879845,63.111
El Dorado2,SOUTH AMERICA,2.999999999,6.719444444,-61.63888889,257.98
El Faiyum,AFRICA,284,29.33248239,30.84269366,111.204
El Fasher,AFRICA,53,13.62311321,25.34827044,754.742
El Fuerte,NORTH AMERICA,5.000000002,26.42,-108.6233333,400.075
El Giza,AFRICA,951.8321341,29.92131767,31.19391226,202.1167493
El Golea,AFRICA,16,30.59635417,2.878125,445.536
El Jadida,AFRICA,59,33.23601695,-8.503389831,21.612
El Kef,AFRICA,21,36.175,8.7,398.789
El Kharga,AFRICA,24,25.45208333,30.54409722,231.688
El Maiten,SOUTH AMERICA,8.000000003,-42.03854167,-71.17395833,1026.923
El Manaqil,AFRICA,38,14.25964912,32.98684211,399.406
El Mansura,AFRICA,352,31.03932292,31.43070549,13.05542629
El Manteco,SOUTH AMERICA,3.000000001,7.352777778,-62.54166667,264.208
El Minya,AFRICA,172.3252773,28.02118957,30.7868348,121.0122005
El Obeid,AFRICA,65.99999999,13.18787879,30.2219697,503.508
El Oued,AFRICA,69.99999999,33.35202381,6.870238095,55.021
El Paso,NORTH AMERICA,930,31.75157706,-106.4162993,1253.326
El Qasr,AFRICA,3,25.69722222,28.87777778,257.638
El Suweis,AFRICA,88.99999999,29.97425094,32.51722846,230.2789057
El Tigre,SOUTH AMERICA,105,8.899444444,-64.22698413,166.611
El Tur,AFRICA,5.999999999,28.24166667,33.62083333,421.948
Elazig,ASIA,74,38.67150901,39.20337838,1118.879
Elbasan,EUROPE,44,41.1157197,20.09545455,1098.893
Elblag,EUROPE,63,54.17169312,19.40793651,14.338
Eldama Ravine,AFRICA,22.99999999,0.037681159,35.71594203,1852.195
Eldorado,NORTH AMERICA,8.000976556,24.32916732,-107.3687505,49.222
Eldoret,AFRICA,118,0.522175141,35.27372881,1852.195
Elgin,NORTH AMERICA,534.0517372,42.11358462,-88.30494291,252.2361277
Elista,EUROPE,36.99999999,46.31554054,44.25495495,83.784
Elk,EUROPE,38,53.82609649,22.35942982,132.737
Elkhart,NORTH AMERICA,296.3953752,41.6677461,-85.95336571,256.7311598
Elko,NORTH AMERICA,35,40.84428571,-115.7685714,1944.15
Elmira,NORTH AMERICA,93,42.12580645,-76.82455197,351.491
Ely1,NORTH AMERICA,8.999999999,39.2537037,-114.8824074,2103.709
Ely2,NORTH AMERICA,7.999999999,47.90520833,-91.86145833,431.987
Embi,ASIA,6.999999996,48.83095238,58.13809524,312.765
Embu,AFRICA,20,-0.537083333,37.45208333,1489.037
Emden,EUROPE,65.99999999,53.37083333,7.194191919,1.176
Emerald,AUSTRALIA,21,-23.5218254,148.1555556,201.649
Emmonak,NORTH AMERICA,1,62.79166667,-164.525,7.26
Emporia,NORTH AMERICA,36,38.41481481,-96.19722222,409.259
En Nuhud,AFRICA,19,12.69078947,28.42017544,566.329
Encarnacion,SOUTH AMERICA,152.5040759,-27.34548159,-55.88902638,187.282
Ende,MALAY ARCHIPELAGO,11.99999999,-8.840277778,121.6493056,176.532
Engels,EUROPE,93,51.48315412,46.11998208,61.895
Enid,NORTH AMERICA,74,36.40777027,-97.89786036,330.216
Ensenada,NORTH AMERICA,90.99999999,31.85,-116.6015568,292.099
Entebbe,AFRICA,70.43653647,0.117941681,32.5044904,1145.708
Enterprise,NORTH AMERICA,43,31.33003876,-85.84496124,102.333
Enugu,AFRICA,4716.29823,6.568696538,7.762441144,153.1546305
Er Rachidia,AFRICA,63,31.93809524,-4.430555556,946.771
Erechim,SOUTH AMERICA,51,-27.63921569,-52.27107843,594.665
Eregli,ASIA,60,37.51069444,34.05263889,1503.58
Erenhot,ASIA,21,43.65436508,111.9916667,1027.408524
Erfurt,EUROPE,143,50.98706294,11.0298951,375.5109351
Ergun Zuoqi,ASIA,44,50.79223485,121.5331439,891.777
Erie,NORTH AMERICA,210,42.10876984,-80.08599206,201.570419
Ermoupoli,EUROPE,4.999999998,37.44333333,24.93333333,20.563
Ertis,ASIA,17,53.3372549,75.45343137,101.621
Erymentau,ASIA,19,51.62807018,73.10307018,385.118
Erzincan,ASIA,88,39.75142045,39.48285985,1854.374
Erzurum,ASIA,75,39.91522222,41.25622222,2064.663
Esbjerg,EUROPE,94.99999998,55.50114035,8.439298246,11.566
Escanaba,NORTH AMERICA,28,45.75416667,-87.08154762,226.448
Escuinapa,NORTH AMERICA,5.000000003,22.83833333,-105.7816667,273.491
Escuintla,NORTH AMERICA,48,14.29149306,-90.78611111,1137.157
Eseka,AFRICA,4.000000002,3.65,10.77291667,269.999
Esik,ASIA,41,43.35914634,77.46788618,1353.813
Esil,ASIA,10,51.9575,66.4,277.116
Eskisehir,ASIA,128,39.77936198,30.53151042,1074.42
Esmeraldas,SOUTH AMERICA,39,0.946794872,-79.66944444,196.151
Esperance,AUSTRALIA,18,-33.84444444,121.8875,139.271
Esperanza,NORTH AMERICA,3,27.59166667,-109.9333333,270.877
Espungabera,AFRICA,1,-20.45,32.76666667,586.841
Esquel,SOUTH AMERICA,19,-42.90657895,-71.32236842,1026.923
Essen,EUROPE,1103.666877,51.52148298,7.059214653,134.8349603
Estancia,SOUTH AMERICA,25,-11.251,-37.439,62.498
Esteli,NORTH AMERICA,19,13.09385965,-86.36052632,798.73
Etawah,ASIA,6507.641273,27.05334778,79.15802109,153.1144809
Eugene,NORTH AMERICA,278,44.06438849,-123.0854616,293.7725698
Eumseong,ASIA,5.999999999,36.93194444,127.6861111,210.275
Eureka,NORTH AMERICA,55,40.78287879,-124.1622727,72.275
Evanston,NORTH AMERICA,826.3328659,42.05301584,-87.81886804,185.9247928
Evansville,NORTH AMERICA,265,37.99084906,-87.51622642,136.7676906
Everett,NORTH AMERICA,606.4924758,47.84673175,-122.2283813,98.82836856
Ewo,AFRICA,12,-0.877777778,14.81388889,456.981
Exeter,EUROPE,91,50.72271062,-3.512271062,79.881
Exmouth,AUSTRALIA,3.000000002,-21.93055556,114.1194444,2.037
Eyl,AFRICA,1,7.983333333,49.81666667,148.914
Eyumojok,AFRICA,26,5.77051282,8.961858974,186.3425769
Fada,AFRICA,1,17.19166667,21.58333333,630.009
Fairbanks,NORTH AMERICA,138,64.83997585,-147.7469203,314.412
Faisalabad,ASIA,5271.912326,31.36241025,73.16027943,185.0668103
Faizabad,ASIA,11692.78447,26.62715389,82.11566942,119.4710921
Falfurrias,NORTH AMERICA,9,27.22962963,-98.15092593,136.864
Farafangana,AFRICA,5.000000003,-22.81833333,47.82166667,249.345
Farah,ASIA,45,32.38074074,62.10555556,863.114
Faranah,AFRICA,7.999999998,10.04583333,-10.74270833,445.262
Fargo,NORTH AMERICA,192,46.86814236,-96.81080729,319.643
Fargona,ASIA,820,40.43911585,71.79860772,763.0014756
Faribault,NORTH AMERICA,42,44.29980159,-93.28333333,304.378
Farmington,NORTH AMERICA,65,36.75102564,-108.1889744,1790.74
Faro,EUROPE,28.99999999,37.03448276,-7.943965517,154.363
Fasa,ASIA,30,28.94611111,53.63722222,1192.409
Fatehpur,ASIA,7693.433953,25.82101331,81.0162505,122.0283665
Fayetteville1,NORTH AMERICA,437,35.06983219,-78.95192601,77.59022288
Fayetteville2,NORTH AMERICA,212,36.1360456,-94.15738994,335.839
Feira de Santana,SOUTH AMERICA,120,-12.23347222,-38.94770833,104.8284917
Felipe Carrillo Puerto,NORTH AMERICA,9.000000002,19.58333333,-88.05,40.433
Fengcheng,ASIA,1949.022918,28.16555609,115.5213653,113.5345388
Fengjie,ASIA,96.99999999,31.10764605,109.4667526,1236.204
Fengshan,ASIA,327.3599716,22.6498927,120.3553889,272.281
Fengzhen,ASIA,87,40.45478927,113.1508621,1337.652
Ferkessedougou,AFRICA,14,9.595833333,-5.204166667,350.39
Fernandopolis,SOUTH AMERICA,50,-20.27,-50.25166667,411.462
Ferrara,EUROPE,97,44.85756014,11.60128866,187.98
Ferrenafe,SOUTH AMERICA,15,-6.628333333,-79.79833333,939.863
Feyzabad,ASIA,11,37.10984848,70.57651515,2385.995
Fez,AFRICA,167,34.03383234,-5.003143713,628.7464483
Fianarantsoa,AFRICA,154,-21.46812771,47.05519481,712.6648572
Filadelfia,SOUTH AMERICA,11,-22.34848485,-60.03333333,156.922
Finnsnes,EUROPE,6.999999997,69.23690476,17.98095238,103.007
Firozabad,ASIA,3076.364681,27.23594193,78.54020603,169.2661022
Flagstaff,NORTH AMERICA,68,35.20404412,-111.6300245,1834.342
Flensburg,EUROPE,104,54.79126603,9.427564103,16.855
Flin Flon,NORTH AMERICA,13,54.77820513,-101.8621795,300.829
Flint,NORTH AMERICA,514,43.02592412,-83.69755188,222.5754592
Florence1,NORTH AMERICA,115,34.1823913,-79.80246377,43.50800652
Florence2,NORTH AMERICA,77,34.83939394,-87.67099567,214.172
Florence3,EUROPE,617,43.84235548,11.10838736,336.585235
Florencia,SOUTH AMERICA,28,1.611904762,-75.61190476,592.609
Flores,NORTH AMERICA,22,16.92083333,-89.91174242,324.304
Floriano,SOUTH AMERICA,19,-6.763596491,-43.02631579,246.722
Florianopolis,SOUTH AMERICA,49,-27.57857143,-48.52193878,121.115
Focsani,EUROPE,35,45.68880952,27.1752381,68.71
Foggia,EUROPE,46.99999999,41.45762411,15.54556738,250.902
Fond du Lac,NORTH AMERICA,72,43.78171296,-88.45358796,279.363
Fonte Boa,SOUTH AMERICA,9,-2.516666667,-66.0962963,62.925
Forbes,AUSTRALIA,8.000000008,-33.375,148.0041667,378.8037493
Formiga,SOUTH AMERICA,32,-20.45598958,-45.44088542,848.681
Formosa1,SOUTH AMERICA,80,-26.16708333,-58.18677083,64.127
Formosa2,SOUTH AMERICA,38,-15.54144737,-47.32894737,894.885
Forster-Tuncurry,AUSTRALIA,11.99999999,-32.19722222,152.5194444,32.974
Fort Chipewyan,NORTH AMERICA,10,58.72083333,-111.1616667,224.297
Fort Collins,NORTH AMERICA,297,40.50903479,-105.079826,2437.795027
Fort Good Hope,NORTH AMERICA,1,66.25833333,-128.6333333,145.29
Fort Lauderdale,NORTH AMERICA,1469.959545,26.18834502,-80.21209334,6.667876243
Fort McMurray,NORTH AMERICA,74,56.71227477,-111.3887387,518.409
Fort Pierce,NORTH AMERICA,367,27.32556767,-80.34266576,8.474
Fort Resolution,NORTH AMERICA,3.000595064,61.17777775,-113.6777768,159.342
Fort Severn,NORTH AMERICA,0.999999998,55.99166667,-87.64166667,74.512
Fort Shevchenko,ASIA,3,44.51111111,50.26111111,8.094
Fort Simpson,NORTH AMERICA,2,61.85,-121.3458333,251.781
Fort Smith1,NORTH AMERICA,144,35.35914352,-94.39155093,261.32
Fort Smith2,NORTH AMERICA,4.999999998,60.00666667,-111.89,241.64694
Fort St. John,NORTH AMERICA,46,56.24728261,-120.8471014,697.853
Fort Stockton,NORTH AMERICA,19,30.89473684,-102.8890351,961.09
Fort Wayne,NORTH AMERICA,470,41.09601064,-85.14175532,270.0358989
Fort Yukon,NORTH AMERICA,6,66.56666667,-145.2625,148.527
Fort-de-France,SOUTH AMERICA,83.99999999,14.6296627,-61.05257937,13.55246429
Fortaleza,SOUTH AMERICA,617,-3.821447866,-38.56400594,17.89022537
Foshan,ASIA,2018.73014,23.02215769,113.0684993,98.72302385
Foumban,AFRICA,18,5.737962963,10.89675926,1212.567
Foz do Iguacu,SOUTH AMERICA,160.7410704,-25.53254864,-54.57844448,262.404
Franca,SOUTH AMERICA,126,-20.53201058,-47.40092593,787.697
Franceville,AFRICA,37,-1.619594595,13.59189189,428.738
Francistown,AFRICA,53,-21.17106918,27.51556604,968.804
Frankfort,NORTH AMERICA,72,38.19444444,-84.85787037,248.142
Frankfurt,EUROPE,1574,50.09215904,8.559265142,276.4372187
Fredericksburg,NORTH AMERICA,231,38.29025974,-77.5017316,86.736
Fredericton,NORTH AMERICA,57,45.95277778,-66.63961988,76.20848946
Frederikshavn,EUROPE,37,57.44256757,10.50788288,7.938
Freeport1,NORTH AMERICA,99,29.02079125,-95.41111111,15.02396868
Freeport2,NORTH AMERICA,79.99999999,26.53677083,-78.6553125,0.384
Freetown,AFRICA,91.00000001,8.466758242,-13.23424908,8.926
Freiburg,EUROPE,157,48.02494692,7.835721868,383.9771759
Fresnillo,NORTH AMERICA,47,23.19007092,-102.866844,2040.112
Fresno,NORTH AMERICA,508,36.79261811,-119.776706,214.889
Fria,AFRICA,17,10.37009804,-13.58333333,253.05
Frias,SOUTH AMERICA,13,-28.63397436,-65.13205128,792.143
Frolovo,EUROPE,41.99999999,49.77321429,43.64781746,118.506
Frontera,NORTH AMERICA,2,18.57916667,-92.65,1.611
Frutal,SOUTH AMERICA,18,-20.0212963,-48.93101852,524.563
Ft. Dodge,NORTH AMERICA,37,42.51261261,-94.18468468,355.361
Ft. Myers,NORTH AMERICA,204.7653978,26.56742435,-81.8473884,10.187
Ft. Worth,NORTH AMERICA,1549.281659,32.77042677,-97.26274903,248.1194736
Fuan,ASIA,36.99999999,27.10675676,119.6342342,764.681
Fujin,ASIA,52,47.25480769,132.0317308,59.08548077
Fukui,ASIA,97,36.08195876,136.2204467,261.374
Fukuoka,ASIA,879,33.51740614,130.4666193,149.949
Fukushima,ASIA,152,37.78135965,140.4682018,442.639
Fulin,ASIA,0.999999998,29.35,102.7166667,2160.03
Funchal,AFRICA,82.99999999,32.66164659,-16.93032129,25.69961416
Funtua,AFRICA,167,11.49780439,7.331287425,634.03
Furth,EUROPE,186.9259004,49.47333268,10.98258615,402.5378328
Fushun,ASIA,389.3821749,41.85662514,123.8706062,195.5056832
Fuxin,ASIA,344,42.03430233,121.6915455,273.4410175
Fuyang,ASIA,10226.93081,32.84982384,115.8556256,35.17009125
Fuyu,ASIA,187,45.17482175,124.8170232,130.641
Fuzhou,ASIA,313,26.07955272,119.2911076,300.7547591
Gaalkacyo,AFRICA,14,6.779166667,47.42083333,252.274
Gabes,AFRICA,120,33.90770833,10.06854167,109.4243073
Gaborone,AFRICA,92.00000001,-24.65262681,25.92092391,1146.501
