City,Region,tif_count,Latitude,Longitude,wc2.1_5m_bio_18.tif,wc2.1_5m_bio_11.tif,wc2.1_5m_bio_19.tif,wc2.1_5m_bio_13.tif,wc2.1_5m_bio_10.tif,wc2.1_5m_bio_3.tif,wc2.1_5m_bio_9.tif,wc2.1_5m_bio_14.tif,wc2.1_5m_bio_2.tif,wc2.1_5m_bio_16.tif,wc2.1_5m_bio_8.tif,wc2.1_5m_bio_5.tif,wc2.1_5m_bio_6.tif,wc2.1_5m_bio_1.tif,wc2.1_5m_bio_12.tif,wc2.1_5m_bio_7.tif,wc2.1_5m_bio_17.tif,wc2.1_5m_bio_4.tif,wc2.1_5m_bio_15.tif
Aalborg,EUROPE,1.61,57.08074534,9.891304348,171.3664596,0.731802886,131.9751553,70.0310559,15.4444304,31.01764719,2.794768824,31.17391304,7.203979862,198.5279503,12.03831305,20.73582902,-2.489854819,7.743962172,616.1118012,23.2256835,104.757764,606.4562367,24.14464978
Aarhus,EUROPE,2.73,56.20909646,10.13919414,177.7619048,0.685327669,125.3846154,66.73260073,15.71001334,28.75652442,2.723469057,33.94871795,7.002005027,197.4871795,9.04252353,20.2846769,-4.0689889,7.887753511,633.959707,24.3536659,109.3882784,621.8736282,22.26084553
Aba,AFRICA,3.27,5.127930683,7.295616718,371.3302752,25.22179559,1059.006116,387.0733945,27.63317806,74.63837339,26.89638411,25.55657492,8.343761785,1059.006116,25.22179559,32.64484176,21.46637909,26.42721442,2428.342508,11.17846267,118.5504587,93.07581969,64.19803992
Abadan,ASIA,0.6,30.37916667,48.2375,0,13.73548334,96.06666666,37.33333333,35.82639656,38.8637181,35.82639656,0,14.74665793,97.06666666,15.56098657,45.15214952,7.208816735,25.32820956,164.9666667,37.94333248,0,902.7508982,98.21012332
Abaetetuba,SOUTH AMERICA,0.12,-1.666666667,-48.91666667,202,25.92950058,1217,435,26.92066574,84.02404022,26.92066574,59,7.947833538,1271,25.95966721,31.33899879,21.87999916,26.43541718,2644,9.458999634,202,40.37599182,67.37737274
Abai,SOUTH AMERICA,0.04,-26,-56,378,17.31999969,273,188,26.16133308,54.12757492,17.31999969,77,11.48099995,468,24.13750076,32.22100067,11.01000023,21.88158417,1568,21.21100044,273,366.6720886,25.55195427
Abakan,ASIA,0.93,53.75,91.39605735,186.8817204,-15.72356082,26.06451613,67.06451613,17.91228735,24.85779953,-13.20779715,5.623655914,12.20769824,186.8817204,17.91228735,26.27034415,-22.84139732,1.650247869,338.0860215,49.11174159,22.62365591,1358.529381,79.40352352
Abancay,SOUTH AMERICA,0.14,-13.58333333,-72.91666667,327,13.89750004,57,220,15.72683334,81.04560852,13.95816612,15,15.02666664,631,14.89566708,23.99799919,5.456999779,14.82183361,1167,18.54100037,57,73.40306854,80.60087585
Abau,MELANESIA,0.01,-10,148.5,562,23.86583328,474,232,26.69016647,66.52646637,25.86916733,124,7.790249825,650,25.9640007,31.61600113,19.90600014,25.46112442,2072,11.71000099,414,114.0264587,18.15141678
Abaza,ASIA,0.19,52.66666667,90.05263158,232.8421053,-15.42823646,61.73684211,86.73684211,15.29114924,25.49136593,-13.01374551,12,11.57146951,232.8421053,15.29114924,23.2517899,-22.14278904,0.358704005,523.5263158,45.39457823,45.36842105,1246.786994,56.36735856
Abbottabad,ASIA,7.595490645,34.10591133,73.04523012,557.4816411,9.331190112,207.9625583,244.0198068,27.12753289,38.25294867,14.86846971,21.12193594,12.7765529,577.4561638,25.72836027,35.55046879,2.152971224,18.88536901,1160.59667,33.39749765,95.30012147,729.5774041,75.42643946
Abeche,AFRICA,0.14,13.88095238,20.78571429,45.64285714,25.53571415,0,157.7857143,32.39782143,60.18543189,27.13766657,0,15.25266702,321,28.11630998,40.77478681,15.43207128,28.75940541,374.0714286,25.34271567,0,271.5838296,159.4453539
Abengourou,AFRICA,0.48,6.763888889,-3.536458333,313.4166667,24.81264941,314.7291667,206.5,27.79720155,70.08932654,26.91001745,8.520833333,8.366084814,512.6458333,26.88004565,32.9483134,21.01197946,26.3741022,1234.354167,11.93633393,76.375,116.314414,60.48303564
Abeokuta,AFRICA,2.88,7.164930556,3.293113426,253.3680556,25.0200429,416.4652778,204.8784722,28.38225809,70.51105682,27.59661978,12.06597222,8.694709543,539.9618056,26.02989766,33.90855571,21.57656593,26.74567033,1249.086806,12.33198977,54.53125,133.055632,64.20608817
Aberdeen1,NORTH AMERICA,0.39,45.5,-98.51068376,218.6153846,-9.553713799,34,86.87179487,21.11393635,27.53029931,-9.553713799,10,13.07573047,226.7435897,18.75215364,29.72223018,-17.77374356,6.478341885,510.6153846,47.4959754,34,1242.538834,59.63583022
Aberdeen2,NORTH AMERICA,0.52,47,-123.8733974,183.4038462,5.313174394,989.5384615,364.8076923,15.68592306,44.44760572,15.38839547,41.96153846,8.733013923,1041.057692,5.701482736,21.57522576,1.931416931,10.2494852,2292.961538,19.6438084,161.4038462,425.9462327,62.86142804
Aberdeen3,EUROPE,1.63,57.19836401,-2.181492843,181.4662577,2.820977391,206.5889571,82.36196319,13.63031991,38.49716243,9.104370142,53.0797546,7.362324908,238.3312883,5.527853928,18.68969848,-0.437536896,7.985531169,789.0429448,19.12723572,162.2208589,441.7983466,17.09769653
Abha,ASIA,0.44,18.25,42.47159091,65.77272729,15.00846603,28.68181818,49.68181818,25.22295007,55.49580002,19.22838939,6,13.90011159,132.0909091,20.53141611,32.30993132,7.264022663,20.2523225,251.5681819,25.04590897,24.68181818,420.4309741,74.94346012
Abidjan,AFRICA,5.57,5.417863555,-4.061340515,325.5655296,24.69103595,269.567325,438.7827648,27.69425858,64.88394019,27.08151319,21.53141831,6.490712137,853.8456015,27.0719876,31.56768316,21.56769266,26.45424866,1697.177738,9.999990501,144.2369838,121.5690361,80.24386994
Abilene,NORTH AMERICA,1.38,32.48007246,-99.80495169,186.173913,7.863500115,84.10869565,84.63768116,27.7314614,38.71522492,7.863500115,24.05072464,13.76938871,216.557971,23.75645561,35.16770343,-0.398210151,18.07510644,616.0217391,35.5659131,84.10869565,805.1644738,40.72085057
Abohar,ASIA,12.50599139,30.37000886,74.29493601,127.5102954,14.17672211,26.3372111,100.1087293,32.74204652,39.80707259,19.38150475,2.72813031,14.12859807,270.1885504,30.85395348,41.05024728,5.557904383,24.4462549,356.9589968,35.49234278,17.36747306,766.9357478,120.4883549
Abomey,AFRICA,14.21624684,6.908970431,1.854721596,234.5224856,25.38554972,300.7296334,162.9243795,28.63146398,70.58920859,27.55881579,5.162259746,8.931463835,431.1796863,27.21527596,34.28943494,21.63588495,27.0714983,1006.298869,12.65354999,45.93425473,130.1690514,63.65049715
Abong Mbang,AFRICA,0.02,4,13.16666667,306,22.93183327,468,293,24.7001667,72.30963898,23.4841671,22,9.857250213,656,23.13666725,30.56399918,16.93199921,23.5896244,1593,13.63199997,90,75.6412735,62.78927231
Abra Pampa,SOUTH AMERICA,0.06,-22.66666667,-65.75,125,5.917833328,2,58,14.32299995,62.22682953,6.091666222,0,17.02775002,156,14.25616646,22.12199974,-5.242000103,10.82904148,221,27.36400032,1,356.8828125,114.6472778
Abu Dhabi,ASIA,1.23,24.48780488,54.36924119,2,19.88043756,35.68292683,22.05691057,34.18799982,40.29534475,31.31245346,0,10.45514646,45.72357724,20.49032514,40.22324052,14.29898506,27.46945401,62.1300813,25.92425582,1,592.3348835,115.4865922
Abu Kamal,ASIA,0.93,34.53942652,40.87365591,1,9.09939972,59.98924731,26,31.47795999,35.57846582,30.98845615,0,13.29599883,64.86021505,10.93612731,40.076354,2.706774186,20.73781555,134.5913979,37.36957927,0,917.8523415,80.42588322
Abuja,AFRICA,2.06,9.105582524,7.439724919,112.3009709,24.62261416,786.6990291,283.5291262,28.45091938,61.95238699,25.7026279,0.995145631,10.64816666,786.6990291,24.62261416,35.03263164,17.84487341,26.1571326,1372.883495,17.18775823,9.558252427,159.4342448,94.60978136
Acapulco,NORTH AMERICA,1.6,16.9265625,-99.87708333,561.75625,25.79644492,23.56875,301.19375,27.78485543,76.60837541,26.42962644,1.95,9.166298121,822.25,27.42687122,32.64307649,20.65571318,26.90143578,1303.125,11.98736331,9.80625,80.1679544,115.6448562
Acarau,SOUTH AMERICA,0.04,-2.833333333,-40.16666667,36,26.99090958,286,339,28.39427567,81.09020233,27.92457962,2,10.52861977,859,27.03249168,34.37171555,21.38787842,27.64755821,1283,12.98383713,9,62.34942627,116.3760223
Acarigua,SOUTH AMERICA,0.82,9.607723577,-69.24898374,104.8536585,25.99823417,561.8658536,213.8536585,27.59688426,78.36425893,27.2020242,14.56097561,10.20895222,561.8658536,25.99823417,33.72265751,20.69515889,26.77347807,1216.756098,13.02749862,50.69512196,62.57842003,68.80440223
Acatlan,NORTH AMERICA,0.07,18.25,-98.08333333,176,21.7998333,14,121,26.19983292,72.21958923,21.7998333,4,16.75566673,317,24.34933281,35.52999878,12.32899952,24.00933266,569,23.20100021,14,174.9554291,99.90883636
Accra,AFRICA,7.47,5.680834449,-0.216421241,213.9678715,25.47225627,173.291834,190.7670683,28.46408268,72.0166131,27.9028166,14.18607764,8.00445543,453.373494,27.50420398,33.18622433,22.07192583,27.13476858,934.8313253,11.1142985,73.7188755,118.5456391,67.70726213
Achinsk,ASIA,1.02,56.29575163,90.43954248,200.0490196,-14.10465853,52.93137255,74.03921569,16.50486955,20.75773073,-12.10251963,11,8.881157482,200.0490196,16.50486955,23.83500013,-18.94800044,1.119743842,437.8627451,42.78300005,40.67647059,1241.834169,55.93626262
Acu,SOUTH AMERICA,0.07,-5.523809524,-36.92857143,173.7142857,26.23338018,75.42857142,178.8571429,28.54797636,78.2394213,27.66085706,2.285714287,9.336380959,439.8571429,28.12185723,33.7415717,21.80857032,27.58967836,694.7142857,11.93300138,11.14285714,93.80581229,105.7368328
Ad Dakhla,AFRICA,0.17,23.75,-16,22,18.4370842,20,16,22.63916779,57.85024261,19.96291733,0,6.985416889,23,22.09291649,26.32999992,14.25500011,20.41145897,50,12.07499981,2,170.3630371,109.1240158
Ad Damman,ASIA,4.04,26.43028053,50.07219472,0,16.92876541,39.55445544,20.81435644,34.57072899,37.37144585,33.34005815,0,11.21380156,53.70544554,17.84569666,41.3424967,11.34314836,26.27089242,78.29455445,29.99934832,0,724.0283656,104.0239083
Ad Diwaniyah,ASIA,0.57,32.02339181,44.88450292,0,12.05205258,57.98245614,21.7368421,34.43328951,38.12767424,34.43328951,0,14.7984445,57.98245614,12.05205258,43.69752663,4.884631651,23.77161849,109.368421,38.81289532,0,916.6595984,84.92183163
Ad Nabk,ASIA,0.21,34.08333333,36.67460317,0,4.16228585,100.952381,38.61904762,21.91831026,42.35128257,21.91831026,0,13.98018637,100.952381,4.16228585,31.46614293,-1.543904798,13.20703025,200.5714286,33.01004791,0,736.5810169,77.35641262
Adana,ASIA,2.45,37.0414966,35.28469388,32.69795918,10.18972119,333.2040816,130.6653061,27.09861219,38.77365066,27.09861219,7.587755101,11.16834752,333.2040816,10.65344089,33.30312305,4.49833475,18.74636022,703.8163265,28.80478804,32.69795918,695.1595329,68.5189829
Adapazari,ASIA,1.67,40.78792415,30.35429142,139.7724551,6.663253447,263.0658683,106.8443114,22.03674847,36.59427515,21.33745802,43.2754491,9.373937138,275.2754491,8.125246636,28.1476944,2.532053873,14.21529519,783.3413173,25.61564075,136.742515,631.968534,30.25118827
Addis Ababa,AFRICA,13.99,8.750357398,38.98820586,206.6383131,16.2274729,56.29807008,219.2380272,18.76856855,76.85602325,16.23510129,5.293781272,14.20510716,550.0192995,16.9179132,26.31159474,7.839750612,17.36069669,935.6325947,18.4718443,30.80057184,105.3174066,92.10869082
Adelaide,AUSTRALIA,9.46,-34.87041931,138.5543517,69.36575052,11.18542862,228.5930232,81.66279068,21.20414135,47.12337127,21.09972431,17.98731501,10.12553762,228.5930232,11.18542862,28.25140178,6.778137796,16.18214353,578.4217758,21.47326395,68.09830866,408.1460522,45.18061012
Aden,ASIA,0.42,12.83928571,44.98015873,9.380952381,25.27289173,13.85714286,7.928571429,31.82132117,48.05303828,31.5210025,1.69047619,7.35066583,17.85714286,25.57804553,36.35498301,21.06498364,28.59758304,52.92857143,15.28999937,8.380952381,274.7402155,38.22364644
Adi Ugri,AFRICA,3.029569378,14.91167993,38.77448093,138.0335765,18.2195049,23.58825294,196.2779778,22.48517872,71.82493489,18.40252251,2.10906851,14.57555288,440.6797909,20.70142677,30.65926429,10.36751052,20.21560243,627.8926056,20.29175362,13.77654063,166.4093167,127.1535698
Adigrat,AFRICA,0.4,14.3,39.43333333,139.2,13.22866688,28.6,167,17.38123283,72.10943909,13.83706665,4.8,14.90761681,357,16.37653351,25.18019981,4.506600094,15.35040855,570.6,20.67359962,25,164.8786102,112.0039566
Adiyaman,ASIA,1.35,37.79814815,38.22962963,12.64444444,5.340960524,301.6222222,118.5555556,28.21744566,31.35816762,28.13878437,1,11.53934027,301.6222222,5.340960524,37.08640659,0.293681494,16.67583092,610.962963,36.7927254,8,936.8426744,78.23977712
Ado Ekiti,AFRICA,18.04388462,7.749430408,5.078419984,231.726221,23.15209632,559.7507572,243.5005358,26.38497332,67.61896829,24.98254775,7.933509332,9.289629896,562.4373394,23.27149376,32.08149206,18.33735067,24.67585342,1355.085375,13.74414139,47.8447247,126.0613286,69.03828923
Adrar,AFRICA,0.36,27.90972222,-0.333333333,1,14.10479156,3,3,36.13111083,39.27748744,33.41947142,0,15.7757357,7,25.54449972,45.41366514,5.24966685,25.11704763,12.91666667,40.16399701,0,894.7846883,48.18495846
Afyon,ASIA,0.84,38.80257937,30.52380952,68.30952381,1.103454401,172.4047619,67.25,20.45267834,36.10285446,20.06269671,12,11.85173213,172.4047619,1.103454401,29.10491671,-3.721749998,10.83627001,495.5119048,32.8266671,45.79761905,788.0375824,41.58320795
Agadez,AFRICA,0.39,17.01709402,7.94017094,53.02564103,21.37999544,0,48.51282051,33.53484198,49.91383078,25.31777323,0,14.59677148,97.92307692,31.50475659,41.63612757,12.39243534,28.44383611,114.3589744,29.24369225,0,503.9012647,156.3003501
Agadir,AFRICA,1.65,30.43888889,-9.589393939,4.139393939,14.66671091,119.4666667,49.41818182,22.81988663,50.46684577,22.30406741,0.042424243,9.784630289,119.4666667,14.66671091,27.59936516,8.218123032,18.81865572,208.4909091,19.38124229,3.151515151,322.1594392,89.80658662
Agana,MICRONESIA,0.7,13.52738095,144.7488095,527.3571429,25.9675793,278.5714286,350.5285714,27.37515346,76.20928628,26.35682237,74.77142857,5.75545952,969.5,27.0008106,30.50123005,22.94896428,26.79085129,2217.171429,7.552265767,246.6428571,57.26162409,52.97929219
Agartala,ASIA,50.02963516,24.08841631,91.14962297,1159.063702,19.25985385,32.86531102,458.0893785,28.15019272,45.10134788,19.25985385,5.224025771,9.968513893,1176.486484,28.11484227,32.79437217,10.70041436,25.07351839,2220.815315,22.09395777,32.86531102,383.6449278,86.49243405
Agboville,AFRICA,0.34,5.985294118,-4.25,313.1764706,25.34503006,286.8235294,247.4705882,28.19172534,69.94570833,27.4177356,12.17647059,7.65924033,582.8823529,27.46122607,32.70158835,21.75200036,26.90648808,1335.235294,10.94958799,94.05882353,112.5775452,60.84212112
Agen,EUROPE,0.8,44.24375,0.592708333,186.45,5.978137702,250.35,90.8,19.74303775,40.0311306,19.74303775,56.7625,10.0919582,259.325,9.083562218,26.68441298,1.473887481,12.65546346,924.1125,25.21052511,186.45,567.3218811,14.10045115
Agordat,AFRICA,0.1,15.58333333,37.83333333,52,26.33566666,2,114,31.63216782,66.60106659,26.33566666,0,14.72149944,266,28.4798336,40.18000031,18.07600021,28.88633347,335,22.10400009,2,215.2813873,142.0162811
Agra,ASIA,42.65955724,27.21342208,78.10458683,284.1420834,15.80152146,33.59040379,261.2381433,33.07955336,39.49143198,19.07219228,3.283029476,13.804144,624.3466686,29.61084316,41.9220273,6.967131454,25.42856466,783.7752358,34.95489593,26.58145012,701.1715974,137.0824883
Agri,ASIA,0.38,39.75,42.99561404,63.94736842,-7.806227935,119.8421053,71.94736842,19.00578931,29.22644916,19.00578931,19,12.88409223,181.9473684,11.20648239,29.38321104,-14.70031588,6.375817901,506.6842105,44.08352601,63.94736842,1099.515323,36.94372478
Agrinio,EUROPE,0.46,38.66666667,21.35688406,47.95652174,8.647789686,332.9565217,149.7608696,24.08934776,41.31613508,24.08934776,14,12.05092754,374.0217391,12.08189156,32.39962876,3.235543516,16.09441088,838.1956522,29.1640856,47.95652174,639.4575089,65.46668791
Agua Prieta,NORTH AMERICA,0.55,31.37121212,-109.5833333,181.1818182,8.543075562,67,89.09090909,25.63774178,50.33564342,20.6377267,6.545454546,18.44487156,206.6363636,24.89224243,35.49354484,-1.149454518,17.01176955,360.2727273,36.64300086,27.09090909,701.3049205,86.60914751
Aguascalientes,NORTH AMERICA,1.81,21.94337017,-102.3342541,211.3425414,13.26041985,32.44751381,121.6961326,20.6849383,63.28362544,16.318415,1.464088398,17.05051875,309.9558011,19.55886164,30.2212486,3.278314932,17.34884928,481.7734807,26.94293392,14.08287293,304.4901335,105.542679
Ahar,ASIA,0.2,38.5,47.0125,47,-0.837841639,64,55,21.44905882,32.02818317,21.12029152,7,11.72637949,132.85,9.639166403,29.79355049,-6.819300056,10.54320641,319.7,36.61284981,30,905.956015,50.74796619
Ahmadabad,ASIA,82.59250416,22.99959385,72.66739819,90.08823515,20.82508071,5.253776057,278.5057689,32.34320065,45.88935771,25.9387894,0.709023181,13.68810649,631.541126,28.55144791,41.00106747,11.16771997,27.00741288,748.9799381,29.83334749,3.816538991,450.5907947,153.2154514
Ahmednagar,ASIA,1.5,19.14277778,74.71166667,112.0466667,21.30651882,36.55333333,138.8,29.61921471,51.51206479,23.67666917,1,13.7583074,290.38,24.9989716,38.88353951,12.17473332,25.24822568,508.5666667,26.70880554,5,330.517745,101.7795261
Ahwaz,ASIA,2.67,31.35205993,48.62765293,0,13.38997877,156.1348315,62.46067416,36.29356006,37.75283961,36.29356006,0,14.66091378,156.1348315,13.82225842,45.7136928,6.881471945,25.25352658,255.2883895,38.83222026,0,935.9029319,106.3440307
Aigua,SOUTH AMERICA,0.04,-34.16666667,-54.83333333,291,10.78416634,327,116,21.3484993,45.66860199,20.07816696,87,9.841583252,334,13.74699974,27.51099968,5.960999966,16.05904198,1245,21.54999924,281,433.4312744,7.294603348
Aiken,NORTH AMERICA,0.91,33.57783883,-81.76373626,361.8571429,7.945472434,314.2307692,121.8461538,26.12951178,42.44398691,17.76259577,70.48351648,14.16923519,361.8571429,26.12951178,33.68713215,0.303648362,17.2326967,1204.593407,33.38348296,232.8021978,735.9405994,19.0589114
Aiquile,SOUTH AMERICA,0.04,-18.16666667,-65.25,181,14.48050022,7,128,20.0126667,66.49513245,14.48050022,1,15.57050037,342,19.53033257,28.28899956,4.873000145,17.71674919,564,23.41600037,7,232.1339264,99.96842957
Aix-en-Provence,EUROPE,0.95,43.57631579,5.385087719,93.22105263,6.753773685,173.7789474,95.6,22.0258917,37.39128567,22.0258917,14.89473684,10.3339578,231.1263158,14.55751944,29.49173708,1.855347343,13.99137528,663.7578947,27.63638934,93.22105263,626.8085012,35.59086565
Aizawl,ASIA,0.5,23.745,92.66666667,1095.42,16.79707733,49.7,429.84,23.84749352,49.42504982,16.79707733,9.82,9.46551796,1095.42,23.84749352,28.94607933,9.794060211,21.3857515,2222.66,19.15201912,49.7,304.3350147,80.07202622
Ajaccio,EUROPE,0.62,41.97849462,8.711021505,83.74193548,8.768621829,201,98.85483871,21.70466051,38.95905968,21.52459612,9.741935484,9.315910785,266.9516129,12.64093268,28.01283335,4.115254129,14.78129396,662.9032258,23.89757962,54.33870968,539.4588771,49.2269324
Ajdabiya,AFRICA,0.22,30.81439394,20.16666667,0.772727272,13.79530334,96.09090909,38.77272727,26.86608436,46.45146075,26.86608436,0,11.59432559,96.09090909,13.79530334,33.15177328,8.191636692,20.81583743,131.0909091,24.96013607,0.772727272,548.1506653,117.7677172
Ajmer,ASIA,2.07,26.50201288,74.62238325,230.1352657,16.79968747,9.579710145,180.8357488,31.65624695,42.15449201,23.76824874,1.77294686,13.52343618,412.4299517,28.38429569,39.56299497,7.492555517,25.10669142,489.2753623,32.07043979,7.990338164,601.4505471,153.8362592
Aketi,AFRICA,0.17,2.759803922,23.75,478.5294118,24.79870516,508.2352941,221.1176471,25.66327443,80.92940566,25.12344136,42.88235294,10.50533328,576.2352941,24.85450947,31.93770532,18.95676467,25.166054,1659.647059,12.98094065,163.6470588,36.88390844,40.25121173
Akhtubinsk,EUROPE,0.32,48.32291667,46.12760417,83.78125,-6.241807192,72.90625,35,22.7409423,23.7445429,0.911260448,18.875,9.733354001,89.03125,20.88930726,30.26140618,-10.72359377,8.489239513,294.5625,40.98499882,58.34375,1181.949066,20.55971533
Akita,ASIA,1.51,39.77152318,140.0524283,496.1523179,0.813881527,414.1390729,172.9006623,22.40180065,23.96921949,8.747906224,96.47682119,7.541942025,496.1523179,22.40180065,28.39842719,-3.061791766,11.31528144,1626.271523,31.46021862,297.1655629,889.9773297,21.30757549
Akola,ASIA,2.15,20.74418605,76.9496124,137.655814,22.69167056,18.93953488,196.5813953,33.39393234,46.32524803,23.43302706,3,13.16380817,500.7860465,27.06954913,42.56475253,14.14954418,27.58288277,710.4837209,28.41520868,13.90697674,417.0604461,122.3146411
Akron,NORTH AMERICA,8.487085322,41.14380069,-81.53553276,282.9398691,-2.263378284,191.1128046,99.87188487,21.04658547,29.71436959,-1.996814846,55.50348983,10.7737358,286.2337128,18.95141514,28.10421091,-8.153041941,9.7571241,969.0790026,36.25725256,190.8842177,942.8891631,17.65592253
Aksu,ASIA,0.8,41.21041667,80.225,40.0875,-4.919362503,5.524999999,16.3625,23.50153103,30.90717661,-3.821156204,1,14.48658425,40.0875,23.50153103,32.40751176,-14.46283755,10.7957642,73.225,46.87034822,4.524999999,1171.4599,73.38938475
Aksum,AFRICA,0.27,14.15123457,38.7037037,125.4074074,16.89702486,17.18518519,215.2592593,20.58691993,73.21433258,17.11333939,2,15.11744174,480.3333333,18.24403056,28.95855607,8.309778037,18.43720146,656.4444445,20.6487775,6.814814815,155.4207769,134.077062
Akureyi,NORTH AMERICA,0.29,65.74425287,-18.16091954,118.6551724,-2.19345046,150.7241379,73.65517242,10.01024933,31.98509407,5.34322626,24.62068966,6.312146417,194.4827586,2.896895186,14.15837242,-5.57581012,3.153362463,564.1034483,19.73418249,87.82758622,507.9879161,29.56749574
Al Ahmadi,ASIA,0.18,29.14351852,48.00925926,0,14.07457129,57.16666667,21.66666667,36.76747555,39.17807452,36.76747555,0,15.52945466,59.88888889,15.81980928,46.29413944,6.661649836,25.83059756,101.6111111,39.63249016,0,923.4349569,91.61922158
Al Amarah,ASIA,0.81,31.8909465,47.10802469,0,12.87547528,119.345679,44.67901234,34.91967665,39.11090126,34.91967665,0,14.89775726,119.345679,12.87547528,44.14420912,6.053321002,24.26168903,197.7777778,38.09088902,0,904.4093229,99.25148943
Al Ayn,ASIA,1.94,24.23324742,55.68685567,4.159793814,19.75653451,60.92268041,38.27319588,35.7727423,43.48324746,35.7727423,1,13.10365629,82.43298969,24.35013402,42.849372,12.71690216,28.31522166,125.4020619,30.13246958,4.159793814,657.3472765,105.2797616
Al Bayda,AFRICA,0.01,32.83333333,21.58333333,1,11.92683315,270,97.00000001,23.60633278,43.96037292,23.60633278,0,9.525333405,270,11.92683315,29.08099937,7.413000103,17.93958282,419,21.66799927,1,487.6165162,102.5634689
Al Fallujah,ASIA,0.33,33.40151515,43.75,0,11.05681801,66.63636363,22.81818182,34.05457445,37.9065746,34.05457445,0,15.07604625,66.63636363,11.36293932,43.65509276,3.883545377,22.84845508,131.4545455,39.77154888,0,940.2461326,85.49228252
Al Fujayrah,ASIA,0.37,25.14189189,56.31531532,3.081081085,21.32942586,74.54054054,36.13513514,33.87185473,42.39864298,33.36738638,0.216216217,10.43336041,83.8918919,21.90049878,39.96162085,15.35510393,28.18315872,122.5405406,24.60651692,2.432432434,525.7655392,110.853894
Al Hasakah,ASIA,0.48,36.54861111,40.70659722,2.770833334,6.5649514,143.0625,52.35416667,29.82274306,36.76353145,29.82274306,0,14.40073266,148.8125,8.098353982,39.76689521,0.596020819,18.29606088,310.1666667,39.1708738,2.770833334,945.1645317,78.94469802
Al Hillah,ASIA,1.51,32.5281457,44.36644592,0,11.61082566,61.45695364,23.73509934,34.7995997,35.74335912,34.7995997,0,14.07333411,61.45695364,11.61082566,43.82792065,4.455390706,23.62408172,107.1390728,39.3725303,0,953.0733283,91.65430607
Al Hudaydah,ASIA,1.04,14.84054487,42.94871795,16.93269231,25.89547297,12.05769231,12.33653846,33.20053108,53.87741815,30.16947244,1,9.105913602,27.70192308,31.90569526,37.95351399,21.06133518,29.76850557,58.09615385,16.89217881,7.73076923,305.6408853,56.59103639
Al Hufuf,ASIA,1.21,25.43732782,49.53787879,0,17.4179726,32.41322314,24.66115703,34.68713678,38.76864715,34.68713678,0,11.70615095,50.73553719,20.61805796,41.70313112,11.50971071,26.57463137,78.6446281,30.19341997,0,709.611601,103.977792
Al Jaghbub,AFRICA,0.01,29.75,24.5,0,13.8380003,10,5,29.23283386,45.68945313,25.14333344,0,13.80049992,10,15.19733334,36.93099976,6.725999832,21.85391617,14,30.20499992,0,628.9086914,75.79593658
Al Jahra,ASIA,0.53,29.37106918,47.64150943,0,14.18644626,57.67924528,22.54716981,36.70888728,39.5214928,36.70888728,0,15.61984881,61.54716981,15.83721391,46.20639182,6.6839623,25.84568819,109,39.52242941,0,923.6806157,89.2638092
Al Jawf,AFRICA,0.19,24.25,23.25,0,14.6704998,1,1,31.33183289,44.85630417,28.72916603,0,14.34908295,2,16.46616745,38.93799973,6.948999882,23.82170868,2,31.98900032,0,689.069397,33.36423874
Al Jubayl,ASIA,0.47,27.03014184,49.59929078,0,16.24211299,47.91489362,19.19148936,34.66863389,38.00539455,33.84972828,0,12.03815541,56.74468085,17.37168418,41.98770263,10.31831502,25.9604771,90.63829787,31.66938761,0,751.3371335,96.60669302
Al Karak,ASIA,0.88,31.18371212,35.67613636,0,7.85981434,227.3181818,83.31818182,23.56210592,42.03029121,23.56210592,0,12.13174059,227.3181818,7.85981434,31.05118205,2.19227276,16.33364664,350.4545455,28.85890961,0,654.4605588,112.0673991
Al Khalil,ASIA,1.45,31.57011494,35.07241379,0,8.391896577,257.9448276,101.1310345,22.52010551,41.20719005,22.41093123,0,10.4188903,257.9448276,8.391896577,29.01485493,3.734744911,16.00479398,407.6482758,25.2801101,0,590.7754289,110.5804878
Al Kharj,ASIA,0.66,24.18560606,47.28282828,1,18.7437502,27.21212121,32,33.86287053,42.18794198,33.86287053,0,11.88913023,64.75757576,22.59568659,40.90933355,12.72834849,26.71275939,99.5,28.18098476,1,622.8591346,111.8473391
Al Khums,AFRICA,0.15,32.66666667,14.23888889,10.26666667,14.19847031,145.0666667,57.26666667,26.79647675,40.39077377,26.18486328,0,9.073231698,154.9333333,15.89120833,31.94251061,9.482171058,20.44649022,282.1333334,22.46033859,1.133333335,518.5853963,89.06158905
Al Kut,ASIA,0.44,32.56060606,45.77272727,0,12.46043158,87.90909091,31.95454545,35.22915909,37.57197467,35.22915909,0,14.82940526,87.90909091,12.46043158,44.5459997,5.076681766,24.17927473,146.1818182,39.46931874,0,934.222967,97.15142718
Al Ladhiqiyah,ASIA,1.92,35.60503472,35.77951389,18.328125,11.85591613,454.234375,176.796875,26.2964348,36.75883037,25.74591669,2.244791666,8.573759767,454.234375,11.85591613,30.82249844,7.502518629,19.25234646,832.734375,23.31997965,11.02083333,586.6527338,87.7652959
Al Marj,AFRICA,0.21,32.51587302,20.78968254,4.523809524,11.30120659,274.3333333,100.8095238,23.45282546,46.39181573,23.40380977,0,10.93401986,274.3333333,11.30120659,29.98376256,6.415523733,17.60291808,410.0952381,23.5682384,2.095238095,508.2669416,108.3157465
Al Mubarraz,ASIA,0.624640939,25.47136476,49.52730114,0,17.38435878,32.84848745,24.34362291,34.66777885,38.77476483,34.66777885,0,11.71382032,50.53573328,19.52099805,41.68378757,11.47535079,26.54916355,78.53573328,30.2084364,0,710.1026707,103.8670672
Al Mukalla,ASIA,0.32,14.5859375,49.08333333,8.0625,23.82175004,5.0625,6.0625,29.89071518,46.04700589,27.33871913,0,7.293699846,14.125,25.77717656,34.10527122,18.26564711,27.10977709,28.25,15.83962411,3.03125,255.8630156,61.91398394
Al Musayyib,ASIA,0.44,32.83333333,44.25,0,11.34783363,69,25,34.39550018,36.01531601,34.39550018,0,14.10899925,69,13.08916664,43.42499924,4.25,23.26241684,124,39.17499924,0,947.187439,91.56807709
Al Qamishli,ASIA,0.30874184,37.08333333,41.1949475,3,7.54008118,209.66063,73,31.00858395,33.69238386,30.70899641,0,13.13736095,209.66063,7.54008118,40.99528165,2.003357556,19.15095659,428.32126,38.99192472,1,963.4188874,82.56937497
Al Qunaytirah,ASIA,0.09,33.16666667,35.75925926,1,7.13872242,469.4444445,174.6666667,23.51533339,40.27399656,23.51533339,0,11.80834198,469.4444445,7.13872242,31.37699996,2.057888905,15.80037509,727.5555556,29.31911066,1,684.1572401,108.0381775
Al Quwayiyah,ASIA,0.17,24.09313725,45.24509804,2.764705883,16.18579427,33.88235294,43.05882353,34.86896919,40.90563628,34.86896919,0,14.02512752,86,26.29783316,42.82241148,8.538823969,26.12402882,135.6470588,34.28358594,2.764705883,771.0322625,107.5075589
Al Wajh,ASIA,0.1,26.28333333,36.41666667,0,19.48513031,11,7,29.49355926,50.7869667,29.38567581,0,11.20490513,15,23.65080147,35.18506317,13.1278616,24.93545914,23.4,22.05720062,0,415.0485779,80.3383545
Al-Qatif,ASIA,0.741222364,26.5652076,49.96402339,0,16.79807826,40.11977193,20,34.5599812,37.77908509,33.31225744,0,11.4812415,54.11977193,17.7698486,41.52188096,11.13931406,26.20397171,78.80782457,30.38256732,0,727.6783063,104.1677924
Alagoinhas,SOUTH AMERICA,0.22,-12.08333333,-38.48484848,260.7272727,21.55571157,364.2727273,177.1818182,25.1834996,66.36553261,23.49304529,60.72727272,8.485045433,473.3636363,23.35022632,30.02972794,17.24418224,23.62479574,1244.363636,12.7855457,208,154.6142106,36.35884059
Alajuela,SOUTH AMERICA,1.764001031,10.03112947,-84.25932221,445.6054484,21.17748455,595.4894561,398.5884922,22.71273063,80.92507377,21.93013315,20.67936288,10.28095511,1127.98689,21.45458502,28.73791356,16.0330823,21.81193574,2486.733192,12.70483125,83.98488464,62.03895754,71.49521366
Alamogordo,NORTH AMERICA,0.35,32.94285714,-106,118.5142857,6.343876335,43.25714285,51.25714285,25.53950413,45.25957249,11.7014283,7,16.56679846,134.5142857,24.38032804,34.32268655,-2.281742879,15.90276764,265.2857143,36.60442995,26.94285714,783.1858137,64.8031104
Alapayevsk,ASIA,0.53,57.90408805,61.65408805,230.1509434,-12.97487117,65,87.30188679,17.52156315,20.52056662,-10.93766349,15,9.203344687,230.1509434,17.52156315,24.63135892,-20.21862242,2.05001962,504.3018868,44.84998134,56,1231.192132,56.25256801
Alatyr,EUROPE,0.33,54.89393939,46.54040404,186.9393939,-9.779242516,80.30303031,65.78787879,17.82024204,22.17751156,-8.336934292,21,8.498535012,186.9393939,17.82024204,24.25703014,-14.0634546,4.219601096,497.8181818,38.32048462,70.15151515,1133.751076,36.70269313
Alayat Samail,ASIA,0.1,23.33333333,57.91666667,41,19.35616684,58,32,32.32699966,43.17722321,26.50716591,4,11.10474968,81,23.29833412,38.86100006,13.1420002,26.29104233,187,25.71899986,16,530.6463013,58.26388168
Albacete,EUROPE,0.56,39.0297619,-1.916666667,57.58928571,6.237029706,87.98214286,47,23.60876523,39.3877932,23.45346563,11.96428571,13.06230705,127.2678571,16.18372301,33.29801832,0.134535718,14.29504773,375.0178571,33.16348137,52.94642857,713.8571984,35.76244191
Albany1,NORTH AMERICA,1.78,31.62874532,-84.21254682,373.7134831,10.30186046,363.7022472,147.2303371,26.89768946,43.53670225,19.71932939,58.44382023,13.39349602,399.8089888,11.72215235,33.61509503,2.851584293,18.92383478,1291.151685,30.76351045,227.8370787,675.5175977,24.62114088
Albany2,NORTH AMERICA,4.521555382,42.75005111,-73.79705443,285.1571458,-3.946193205,189.0003636,96.51115553,20.91987947,29.71003209,-3.946193205,55.4723782,11.69170159,285.3227485,20.16726721,28.62678448,-10.7262235,8.863147738,973.4341498,39.35300768,189.0003636,1002.874541,15.9871566
Albany3,NORTH AMERICA,0.73,44.66780822,-123.1312785,73.16438356,5.243566258,485.4657534,186.109589,18.5493036,44.08289656,18.2531281,14.45205479,11.9165777,522.8219178,5.606232963,28.1425336,1.109178127,11.55521324,1092.972603,27.03335587,72.65753425,543.1793154,66.81791049
Albany4,AUSTRALIA,0.26,-34.98076923,117.8333333,86.23076923,12.00411378,375.6153846,138.4615385,18.91560422,55.07971837,18.5787647,23,9.037865712,375.6153846,12.00411378,24.07145207,7.662269299,15.32561904,881.8461539,16.40918292,75.23076923,284.7967388,56.41494487
Albert Lea,NORTH AMERICA,0.35,43.68333333,-93.41666667,317.8,-8.567499924,63,108.8,21.02493324,25.27508278,-8.567499924,17,11.14318352,317.8,21.02493324,28.19279938,-15.89459953,7.039758301,791,44.08739929,63,1195.798755,51.18193207
Albuquerque,NORTH AMERICA,7.44,35.1780914,-106.671595,102.2930107,2.952112203,39.76075268,48.04569892,24.03089893,42.42249631,3.71917178,12.10080645,16.60908121,117.9811828,23.06558279,33.68305217,-5.459810582,13.2605578,265.0766129,39.14286248,39.23387096,855.5314081,50.63808438
Albury,AUSTRALIA,0.49,-36.0170068,146.8928571,140.3877551,8.453122295,231.1632653,83.3877551,22.30160176,45.40427383,20.01571114,38.04081632,12.57707319,238.2653061,9.36753781,30.79889839,3.099469316,15.23598241,729.1428571,27.69942903,135.7755102,562.9054516,23.82823283
Aldama,NORTH AMERICA,0.06,22.97222222,-98.08333333,475.3333333,18.22972171,74.66666665,183.6666666,27.41405551,51.34918213,21.92555618,14.66666666,10.6065553,499.3333333,27.02038956,32.41133372,11.75599988,23.55649948,949.3333332,20.65533384,58.33333333,382.7301026,83.22232056
Aldan,ASIA,0.31,58.66666667,125.3333333,274,-25.36933327,76,96,14.30233288,19.06323433,-22.25900078,21,10.21675014,274,14.30233288,22.32799911,-31.26600075,-5.788208485,639,53.59400177,69,1617.992676,53.79391479
Aleksandrovsk,ASIA,0.18,50.91666667,142.1111111,244.6666667,-15.17230352,117.3333333,95.99999999,14.29931227,19.88251432,-8.133705457,27.33333333,8.28474172,277.6666667,10.68489297,19.74317932,-21.92528216,0.294283132,654.3333333,41.66845957,86.33333333,1207.729248,45.89803441
Alekseyevka,EUROPE,0.32,50.66666667,38.6484375,175.21875,-6.268853933,119,63.21875,19.26933914,25.0328204,0.412656332,29,9.367877305,175.21875,19.26933914,26.21493793,-11.20762485,6.800735712,538.21875,37.4225632,99,1054.692856,22.90948451
Aleksin,EUROPE,0.56,54.5610119,37.02529762,222.7321429,-7.344523907,113.1964286,83,16.77885703,23.85984261,-1.242434536,29.75,8.249650427,222.7321429,16.77885703,23.04005378,-11.53526798,4.900491859,605.8928571,34.5753231,96.5,985.1876689,32.77595213
Aleppo,ASIA,2.91,36.2545819,37.12485682,2.151202749,6.852471886,161.9450172,57.6975945,27.61647814,36.44556251,27.60415166,0,12.38071401,161.9450172,6.852471886,35.55992833,1.599137452,17.49462805,313.0171821,33.96079099,2.030927835,857.2949582,81.89342803
Alexandria1,NORTH AMERICA,1.34,31.35385572,-92.4869403,337.6865672,10.26125746,434.2985075,163.3059701,27.56406024,39.90888134,27.00631078,104.7089552,12.18747991,450.3059701,11.25986451,33.80820106,3.270589519,19.20305779,1542.373134,30.53761139,321,703.0167113,14.21809976
Alexandria2,NORTH AMERICA,14.21829432,38.91487614,-77.30529718,279.9241256,2.274663283,223.7667498,101.106183,23.93584885,33.6165131,2.274663283,68.53093909,11.82681244,286.1970763,22.14339733,31.05932392,-4.118030373,13.275241,1029.05789,35.17735457,223.7667498,876.3402302,10.89258426
Alexandria3,AFRICA,4.95,31.23602694,29.97491582,0.068686869,14.73206861,110.9838384,45.52929293,26.48294784,43.06621746,26.15527146,0,9.420475833,114.5676768,16.30818902,31.15349479,9.289986528,20.74142967,163.9292929,21.86350796,0,487.4540873,114.7556499
Alexandroupoli,EUROPE,0.26,40.91666667,25.84935897,71.42307692,5.467175007,195,82,22.96951558,30.98617018,22.55395684,14.80769231,8.683273242,219,10.51180718,29.322725,1.300330194,13.89758176,563.2307692,28.02239543,63.61538462,719.917842,45.00384609
Aleysk,ASIA,0.37,52.52252252,82.73873874,167.1351351,-13.79523847,85.59459459,66,18.82216273,24.43410755,-12.17724769,19.32432432,11.30558797,167.1351351,18.82216273,26.8402429,-19.42956713,2.762631739,465.3783784,46.26981055,70.91891892,1341.761917,33.52101764
Algeciras,EUROPE,0.561156425,36.19653897,-5.495373182,22.64153235,12.8234858,368.8100391,145.2275429,23.37749365,38.86866182,22.92731988,0.697054168,7.697478453,390.713421,13.78734909,28.72080292,8.920528761,17.66065789,789.6906329,19.80027392,16,430.1453914,77.07349094
Algha,ASIA,0.2,49.925,57.275,80.5,-12.48274984,70.1,30.4,21.45120049,23.56579685,-11.38468323,19,11.34214973,85.4,19.5748003,30.05250015,-18.07709942,4.780133533,296.6,48.12959976,62,1395.403357,14.14190435
Algiers,AFRICA,18.5,36.70441441,3.053108108,44.40432432,11.54008827,290.5183784,110.2508108,24.75804018,41.98314694,24.24362695,3.028108108,10.84222947,308.6254054,12.70001041,31.80658783,5.979456174,17.57859886,704.3356757,25.82713165,26.19567568,544.2653592,62.04649732
Ali Bayramli,ASIA,0.27,40,48.88888889,31,4.713166714,81.33333333,37.33333333,25.82805634,27.18167941,25.82805634,5,8.737055461,100.6666667,8.650389036,32.59766642,0.453999996,14.94683297,297,32.14366722,31,869.1705526,41.13656235
Ali Sabih,AFRICA,0.08,11.16666667,42.66666667,64,21.45183372,35,38,30.81150055,47.17061234,23.49416733,5,9.673749924,88,30.09199905,36.88100052,16.37299919,26.18370819,204,20.50800133,29,388.8575134,53.9671936
Alicante,EUROPE,1.81,38.43232044,-0.527624309,52.12154696,11.35327527,75.10497238,52.20994475,24.67274782,43.75316934,24.42579078,6.121546961,11.54094368,129.3867403,18.7060364,31.6139428,5.229703249,17.52319242,325.3812155,26.38423947,32.60220994,547.5998309,46.22765666
Alice,NORTH AMERICA,0.31,27.79569892,-98.10215054,207.3548387,14.13203735,103,111.483871,28.9062252,43.49955528,15.26594057,30.25806452,12.64926307,263.4516129,26.5757693,35.73167629,6.65209681,22.08245382,694.1935484,29.07957975,99.61290322,599.6746669,46.09096835
Alice Springs,AUSTRALIA,0.3,-23.66666667,133.8333333,133,13.1335001,37,48,28.22799873,46.40363693,15.21500015,9,14.57816696,136,27.50016594,36.09000015,4.673999786,21.19849968,325,31.41600037,33,619.0595093,50.4368515
Aligarh,ASIA,101.4130124,28.0281658,78.11554667,269.6321658,15.58634014,34.18114923,260.5613872,32.53746191,39.56246956,28.00587913,3.201706978,13.42580002,639.2488018,29.50318432,41.09140441,7.156044178,24.99363737,791.2648169,33.93536023,24.29397009,689.4134286,138.5037802
Alipur Duar,ASIA,68.7915195,26.4313805,89.76766511,1660.735801,19.20318024,27.31640188,751.6809325,28.34748115,47.25374084,19.85376545,3.195678381,9.705914077,1993.91164,28.17190183,32.15604382,11.60978992,24.7892883,3174.351662,20.54625381,25.93606156,383.1844316,106.8201482
Aliwal North,AFRICA,0.12,-30.66666667,26.66666667,224,8.586999893,51,96,21.79850006,52.1620369,8.963832855,13,16.45816612,246,21.22416687,30.68300056,-0.869000018,15.62508297,556,31.55200005,50,537.3392944,57.33198166
Allahabad,ASIA,96.55722996,25.37034581,81.66294533,99.34122554,17.27588914,37.42484831,316.0352899,32.54583212,38.74525909,29.18473658,3.100024452,12.62092837,785.194488,28.90521547,41.32666055,8.753305871,25.7219833,973.9213749,32.57335468,20.95429475,615.8384621,140.9519229
Allanmyo,ASIA,0.19,19.39912281,95.16666667,293.9473684,22.67866757,10.21052632,158.6842105,30.49103426,45.67959133,24.67229783,1,11.84893422,465.0526316,28.11792153,38.95973687,13.02057919,27.16169598,935.3684211,25.93915769,8,314.1992107,87.97305659
Allappey,ASIA,24.11914575,9.571489482,76.4904287,513.5285546,26.65401035,1008.568027,641.9106037,29.0209674,66.66739599,27.17119188,16.83475837,7.439521847,1653.677049,26.69339675,33.18585786,22.0297712,27.44018664,3086.515239,11.15608666,97.43380559,101.0028621,83.1941282
Allende,NORTH AMERICA,0.13,28.40384615,-100.9102564,131.0769231,12.20641041,41.92307692,95.69230769,27.93476853,49.12200605,13.83952552,9.846153845,15.77166022,191.5384615,24.98055091,36.25746213,4.149615471,20.47091983,445.3076923,32.10784648,40.76923077,638.8159602,66.39832247
Allentown,NORTH AMERICA,6.36,40.67439727,-75.45073375,317.6367925,-1.136685282,243.1147799,114.8349057,21.80524813,32.80541469,-0.967816038,70.08018868,12.10008513,326.822327,19.54611726,29.4031443,-7.478971711,10.55892518,1150.621069,36.88211544,243.1147799,930.3706899,12.94386515
Alliance,NORTH AMERICA,0.18,42.16666667,-102.9166667,168,-2.812666655,27,80,21.31716728,36.53194427,-2.812666655,9,15.52425003,208,18.55116653,31.18199921,-11.31299973,8.856958389,411,42.49499893,27,978.6315308,70.46273041
Almaty,ASIA,5.06,43.32114625,76.86149539,101.1482213,-4.77297529,87.49407114,80.99604743,22.51557608,27.432684,14.40642132,22.65612648,11.44555751,202.8537549,11.39592328,30.31159669,-11.41225881,9.27364165,504.8142292,41.72385562,78.13438735,1108.855453,44.30091201
Almenara,SOUTH AMERICA,0.12,-16.15277778,-40.75,270.1666667,21.09997209,77.16666667,156.5,25.42908319,66.31857936,21.68427722,22.5,10.7340703,415,25.02680524,30.97350057,14.78783305,23.66428439,853.6666667,16.18566831,75.5,178.3109563,66.2060318
Almeria,EUROPE,0.54,36.91203704,-2.487654321,17.94444444,11.11907731,83.55555555,32.74074074,24.85949951,41.39866977,24.63082963,2,11.05235587,93.81481481,14.66662147,32.18182172,5.485101462,17.47022134,243.2777778,26.69671952,15.74074074,564.0336541,51.06476635
Almetyevsk,EUROPE,0.8,54.93541667,52.28333333,185.05,-11.29777936,99.6625,67.0625,18.10144203,21.74005892,-3.944556278,25.0625,8.895137298,185.05,18.10144203,24.92604976,-15.98723755,3.730796838,528.1,40.91328855,87.1125,1212.606485,29.86738348
Almirante,SOUTH AMERICA,0.05,9.333333333,-82.41666667,754,24.98856163,593,327,26.22712326,81.4913559,25.18039322,124,7.489215851,888,26.04934692,30.09019661,20.89999962,25.71029472,2863,9.190196991,437,50.03673935,27.68972969
Alor Setar,ASIA,2.85,6.152046784,100.3315789,442.9649122,27.03574943,450.1754386,328.954386,28.4871388,74.76549739,27.42015588,38.16140351,8.854415539,860.1614035,27.19196192,34.05413342,22.21177032,27.65398756,2174.463158,11.8423631,178.9649123,61.22522184,50.58643678
Alotau,MELANESIA,0.05,-10.25,150.4166667,650,23.42541695,834,318,25.87708282,70.65232086,25.59187508,162,6.830312729,871,23.82250023,29.98624992,20.31875038,24.72557259,2927,9.667499542,589,101.2060013,18.05319977
Alpena,NORTH AMERICA,0.41,45.09756098,-83.49593496,229.9756098,-5.751231554,129.3170732,86.12195122,18.56025598,28.12396719,-5.751231554,34,10.69121117,240.0243902,17.82210959,26.24292718,-11.77104864,6.602833283,734.2439024,38.01397566,129.3170732,991.1063724,23.64765484
Alpine,NORTH AMERICA,0.13,30.41666667,-103.6987179,199.3076923,8.078884601,37.61538461,82,23.92799935,49.92351708,9.427358774,9,16.863212,227.9230769,22.87061515,32.34523098,-1.431846169,16.09971516,428.5384615,33.77707643,32.61538461,642.4965163,76.06326705
Alta Gracia,SOUTH AMERICA,0.22,-31.59469697,-64.47727273,330.1818182,10.38743964,37.59090909,119.9090909,21.94039353,50.90604851,10.38743964,10.13636364,13.16048124,330.5909091,21.69709839,28.73672737,2.885227247,16.34487239,751.7272727,25.85149964,37.59090909,465.7692732,66.43388748
Altagracia de Orituco,SOUTH AMERICA,0.17,9.916666667,-66.41666667,318,24.18383408,70,179,25.54483414,82.87844849,24.43016624,13,10.02083302,532,24.73633194,31.01399994,18.92300034,24.84933281,1081,12.0909996,44,57.09941864,73.14215088
Altamira,SOUTH AMERICA,0.07,-3.166666667,-52.25,146,25.4683342,940,369,26.99250031,80.68992615,26.97949982,35,9.940999985,974,25.53483391,32.89400101,20.5739994,26.18000031,1976,12.3200016,117,61.63681793,74.02825928
Altay,ASIA,0.130009156,47.90384706,88.08333333,69.2308234,-13.47082435,31.61534128,29.69232936,19.52155247,25.23390052,-11.4096587,6.15383532,12.25830782,69.2308234,19.52155247,27.76668242,-20.81377077,3.581138037,187,48.5804548,23.30767064,1355.556164,38.54439811
Alton,NORTH AMERICA,1.45,38.9362069,-90.16954023,272.6896552,-0.440402343,176.3793103,103.5793103,24.21892816,29.40825635,-0.440402343,48.07586207,11.29294359,292.1517241,22.05165157,31.22169645,-7.178731129,12.4281633,970.4275862,38.40042788,176.3793103,992.6463817,20.6462822
Altoona,NORTH AMERICA,1.12,40.53422619,-78.43973214,284.3928571,-1.848321434,200.8125,101.2142857,20.58340004,32.14837827,-1.848321434,64.42857143,11.52223791,299.0267857,18.48938835,27.99745529,-7.841098202,9.631706289,995.6428571,35.83855418,200.8125,908.9496433,15.34849059
Alvorada,SOUTH AMERICA,0.01,-12.41666667,-49.16666667,409,24.49100113,33,291,26.69983292,68.92263794,24.52233315,3,12.2510004,821,25.82733345,33.77600098,16.00099945,25.70241737,1622,17.77500153,13,91.20220947,85.78838348
Alwar,ASIA,18.89953245,27.61682884,76.83377908,234.8923852,15.59135746,23.86955512,225.9006951,32.83970824,40.50470465,22.14786162,3.121119095,14.05481021,541.9258796,29.71029401,41.50929386,6.811257263,25.24896561,648.9388492,34.69803694,17.57375696,700.4897506,144.7621319
Alxa Zuoqi,ASIA,0.08,38.875,105.6354167,112.75,-7.167958257,5,48.37499999,21.24256254,31.10838247,-7.167958257,1,13.91147888,116.25,19.59399987,28.93875027,-15.77687478,7.696500066,194.25,44.71562672,5,1150.10878,92.32113076
Am Timan,AFRICA,0.12,11.08333333,20.25,87,25.45983315,2,232,30.8409996,61.67296982,25.79100037,0,15.82774925,566,26.41049957,39.78199768,14.11800003,27.63720894,808,25.66399765,0,219.9540253,121.459938
Amahai,MELANESIA,0.03,-3.305555555,128.8888889,356.6666667,24.56410281,1039,386.3333333,26.28119723,78.19749196,26.28119723,96,7.548718135,1066.666667,24.99230703,30.89487203,21.24102529,25.68568357,2691.666666,9.653846741,356.6666667,76.16201019,42.53413899
Amapa,SOUTH AMERICA,0.04,2.083333333,-50.83333333,112,25.93050003,993,371,28.02316666,71.58101654,28.02316666,29,7.647000313,1065,26.29500008,33.24000168,22.55700111,26.8793335,2507,10.68300056,112,83.19495392,64.31571198
Amarillo,NORTH AMERICA,2.04,35.23488562,-101.8962418,223.8333333,3.264771214,39.96078431,84.13235294,24.61895639,40.34840674,3.264771214,12.29901961,15.52387393,223.8333333,24.61895639,33.04804415,-5.424607817,13.9233617,488.1421569,38.47265161,39.96078431,865.5005182,61.99765278
Amasya,ASIA,0.24,40.68402778,35.78125,74.16666666,1.798826417,137.3333333,56.91666666,19.67267307,35.36475166,19.34425044,10.58333333,10.54402069,156.9583333,14.55260412,26.8669165,-2.94808343,10.98434011,459.5,29.8150003,49.16666666,729.264595,38.92626794
Ambala,ASIA,27.117969,30.33354765,76.8801662,333.4504746,14.1154456,88.50847663,279.7399236,31.07463802,39.07031808,26.24569485,5.403437128,12.77913462,701.1699709,28.72497234,38.96218921,6.253653535,23.529852,952.458839,32.70853551,48.98988861,696.2201053,121.7492246
Ambanja,AFRICA,0.06,-13.625,48.41666667,871,24.16874981,86,515.5,27.30808353,71.40941238,24.16874981,23.5,10.11412525,1288,27.05541611,32.09449959,17.93049908,26.10318756,2103,14.16400051,86,135.5736008,99.58153915
Ambato,SOUTH AMERICA,1.397942212,-1.206728992,-78.64401432,130.9949639,12.2520854,137.3540793,70.96970781,13.76650584,82.94053124,12.69106313,35.67536095,11.45313065,195.0181027,13.47525193,20.40362305,6.59486828,13.21163219,611.4738264,13.80875473,118.7712988,65.05672982,21.46687835
Ambatondrazaka,AFRICA,0.12,-17.77777778,48.38888889,700.8333333,17.58650049,30.08333332,263.3333333,23.35742998,67.46819369,17.63280551,5.583333333,12.45059729,700.8333333,23.35742998,29.50274992,11.04791673,20.84904893,1106.666667,18.45483319,25.49999999,246.745842,108.1539459
Ambon,MELANESIA,0.36,-3.648148148,128.1574074,494.5555556,24.72559484,1052.444444,403.5555555,26.77440135,77.3993988,26.48321872,112.8888889,7.145024141,1084.555556,25.19335959,30.77568203,21.54448573,25.95941205,2688.333333,9.231196297,421.7777778,87.65197245,42.09760539
Amderma,EUROPE,0.01,69.83333333,61.58333333,139,-18.21222305,92,47,6.122221947,19.1073246,-10.30888844,19,6.654444218,139,6.122221947,11.19999981,-23.62666702,-6.601110935,407,34.82666779,65,1007.208435,28.67756271
Americana,SOUTH AMERICA,3.829709453,-22.73639914,-47.36563434,570.6710875,17.31474707,91.57057199,233.434038,23.10584899,62.72937748,17.31474707,25.11212219,10.96538744,627.2769908,23.06376308,28.05057227,10.56985778,20.55462546,1246.331657,17.48071406,91.57057199,243.2407257,70.91762388
Ames,NORTH AMERICA,0.62,42.0766129,-93.68413978,337.5,-5.821887001,72.58064516,128.4193548,22.26080396,27.7023891,-5.821887001,19.79032258,11.84982281,338.0806452,21.69969143,29.60351566,-13.17306468,8.993088861,848.2741936,42.77658149,72.58064516,1133.885457,51.26807736
Amherst,NORTH AMERICA,0.16,45.859375,-64.25,267.4375,-6.175604045,312.1875,117.75,17.06345856,26.88470626,9.535458386,85.0625,9.747041881,333.8125,2.312447891,23.80825019,-12.44668734,5.735448033,1162.25,36.25493813,266.8125,947.6433639,11.03893119
Amiens,EUROPE,1.26,49.92989418,2.262566138,166.8968254,4.101642853,164.5873016,65.84126984,16.96270817,35.40281405,6.514088559,44.99206349,7.812361221,189.1746032,7.467223531,23.0443492,0.978150776,10.35175614,669.4047619,22.06619908,140.0793651,529.8069429,12.57612557
Amman,ASIA,7.48,31.99933155,35.89505348,0,8.527569286,193.5641711,68.71122995,24.38287349,40.27318779,24.36752169,0,11.18345466,193.5641711,8.527569286,31.29763485,3.538974604,17.00834462,303.7887701,27.75866051,0,662.6335281,109.035769
Ammochostos,ASIA,0.33,35.16666667,33.89141414,4.606060608,12.000766,237.2727273,108.4848485,26.95162941,41.22826004,26.78072773,0,11.38342398,237.2727273,12.000766,33.75146242,6.152511336,19.33068079,402.5757576,27.59895013,3.606060608,623.1976282,99.01289807
Amol,ASIA,1.12,36.515625,52.31324405,97.55357143,8.228778345,276.5267857,151.3482143,26.07129797,30.45381624,23.82106161,22.76785714,8.517491051,394.0089286,13.80379428,31.23563436,3.26837495,17.12445848,867.8303571,27.96725915,75.63392857,739.4682317,59.67951138
Amos,NORTH AMERICA,0.18,48.59722222,-78.16666667,316.5,-15.51177804,151.3333333,108.5,15.57122231,25.02866395,-14.32833306,38.83333333,11.89990282,322.8333333,14.45077817,23.43583361,-24.10916646,0.954701394,921.1666667,47.54500198,143,1266.362528,32.12748464
Amravati,ASIA,1.83,20.97040073,77.70582878,147.4972678,22.51479256,29.96174863,231.9071038,33.28388187,44.69282211,28.88827712,6.103825137,12.67620317,583.5628415,26.7718302,42.78325224,14.42215839,27.34264553,817.8087432,28.36109362,24.77595628,421.3270204,122.9098732
Amritsar,ASIA,293.2212817,31.58068152,75.3772806,311.7202269,13.31396965,93.43265033,250.7591502,31.16557399,38.30679566,18.91198566,6.351710567,13.09203932,590.9474139,29.02588341,39.40016229,5.22710473,23.15776102,832.4128634,34.17305755,45.86754503,734.8536683,119.8974686
Amsterdam,EUROPE,5.69,52.39220855,4.825864089,201.6467487,3.478939664,203.7275923,93.69244288,16.22243635,33.52505619,5.704141436,45.32864675,7.109113071,268.8365554,10.56213898,21.55733899,0.356435858,9.739855158,836.1195079,21.20090312,160.3550088,525.9245151,22.38064336
Amursk,ASIA,0.23,50.25,136.8405797,294.5652174,-22.55085448,35,115.9130435,18.59006608,20.79922427,-18.51452877,9,11.766888,306.7391304,16.82723941,25.63013118,-30.94352258,-0.466461855,580.5652174,56.57365218,34.91304348,1663.507239,76.96860338
An Najaf,ASIA,1.76,32.05539773,44.34090909,0,11.85440561,40.38068182,18.74431818,35.32046028,35.3767483,35.32046028,0,13.92782057,40.38068182,11.85440561,44.14418208,4.772886404,24.04165151,75.38636363,39.37129541,0,962.6190571,83.11385879
An Nasiriyah,ASIA,0.7,31.09642857,46.20714286,0,12.81694533,58.01428571,22.15714286,34.06773861,39.58659319,34.06773861,0,14.64206467,58.01428571,14.22942653,43.08697226,6.105171353,24.10026673,103.2428571,36.98180204,0,876.4969639,87.49890202
Anaco,SOUTH AMERICA,0.51,9.485294118,-64.5,118.5294118,25.59451956,77.88235294,178.7647059,26.66153941,82.65261213,25.7800293,9.352941177,11.46161753,516.9411765,25.90946085,32.98453073,19.11741234,26.11235271,1039.529412,13.86711839,44.11764706,46.5128129,73.96675245
Anapolis,SOUTH AMERICA,1.31,-16.29389313,-48.98664122,465.3587786,20.51745667,62,281.4885496,23.01307349,68.16453983,20.79853576,11,10.15227163,800.0229008,22.21621716,29.02079359,14.12660313,22.00196821,1658.167939,14.89419046,37.93129771,102.4456983,77.25994646
Anatuya,SOUTH AMERICA,0.14,-28.41666667,-62.875,323,14.2378335,35,111.5,26.19658375,50.1101265,14.2378335,9.499999999,13.8109169,332,25.30666542,33.64900017,6.088000059,20.44658375,706,27.56100082,35,486.3248596,70.17314529
Anbyon,ASIA,0.07,39.08333333,127.5,606,-1.746500015,60,261,21.4311676,27.2018013,-1.746500015,17,9.442832947,647,21.16483307,26.24699974,-8.467000007,10.42000008,1066,34.7140007,60,945.1126099,93.75414276
Anchorage,NORTH AMERICA,4.02,61.21185738,-149.8874378,211.0298507,-8.133791626,215.7363184,136.6741294,13.8030459,24.78117508,5.544821856,40.29850746,7.848716784,347.0845771,8.074991204,19.04034515,-12.643501,2.460986815,875.4477612,31.68384633,128.4825871,905.8675308,40.6365782
Ancona,EUROPE,0.9,43.58981481,13.4787037,167.2666667,6.041660075,151.1111111,80.46666667,22.07710745,34.16349937,6.7183879,43.03333333,9.108290938,224.9888889,14.77550162,28.43257595,1.796196336,13.79573787,705.8111111,26.63637973,145.5666667,658.3857273,20.02275276
Ancud,SOUTH AMERICA,0.17,-41.83333333,-73.83823529,350.4705882,7.708353183,974.7058823,353.4117647,13.50164369,48.97067777,13.47874204,105.9411765,6.403354841,1018.470588,8.241336879,17.92052987,4.844921336,10.50093253,2490.411765,13.07560898,350.4705882,240.4773326,45.70936966
Anda,ASIA,1.38,46.47282609,125.2204106,321.1956522,-15.56357341,9,147.5,21.81601466,22.0433658,-15.56357341,2,11.52726605,321.1956522,21.81601466,28.00312276,-24.27820278,4.05409394,463.5942029,52.28132555,9,1512.503251,117.1928327
Anderson,NORTH AMERICA,1.25,34.562,-82.70466667,309.28,6.396569344,355.904,136.872,25.26772868,39.37381113,20.01450372,91.944,13.0543918,382.016,7.948048019,32.45066412,-0.704312007,15.97368077,1304.456,33.15497723,290.208,762.8230635,12.52632608
Andijon,ASIA,10.72,40.77347637,72.17467351,20.63526119,0.12616015,80.40391791,31.23787313,25.78675397,30.85235454,23.77795063,3.644589552,12.37762128,89.02238806,8.524525932,34.25011255,-5.866438452,13.56495697,234.5951492,40.1165506,15.04291045,1036.770486,49.78650533
Andkhvoy,ASIA,0.6,36.97638889,65.06388889,1,4.150049957,110.8333333,57.33333333,29.71803099,34.18328762,29.71803099,0,14.44006688,136.65,5.837488691,39.69775111,-2.543750068,16.82803167,233.1833333,42.24150136,1,1030.464278,95.69190458
Andoany,AFRICA,0.1,-13.33333333,48.25,877,23.80313683,104,512,27.03745079,68.71324921,24.04176521,32,9.028921127,1284,26.72588348,31.40353012,18.26352882,25.78652,2145,13.1400013,99,137.795578,95.39192963
Andong,ASIA,0.41,36.59552846,128.6808943,584.8780488,-0.923910578,90.6097561,235.097561,23.29228913,30.85706492,-0.923910578,25.14634146,11.54244918,592.9512195,22.74592297,29.16673111,-8.238463378,11.61794027,1122.585366,37.4051951,90.6097561,980.7896178,76.48037162
Andorra,EUROPE,0.37,42.57207207,1.495495495,233.9459459,-0.666013544,271.8378378,120.7837838,14.1520136,36.06340501,12.99713519,65.05405405,9.520650967,323.8648649,3.60154499,21.32526991,-5.076108076,6.134661191,1119.243243,26.4013775,232.972973,615.1949826,17.28170302
Andradina,SOUTH AMERICA,0.35,-20.8452381,-51.41666667,550.8571428,19.41033282,127.8571429,208,25.34116718,63.53940746,19.54680988,21.14285714,11.91445269,550.8571428,25.34116718,30.67399951,11.92271382,22.85728564,1192,18.75128664,84,252.203877,62.70117678
Androka,AFRICA,0.01,-25,44,226,20.60000038,34,88,28.13039207,63.24981308,21.30882263,7,13.43872547,259,28.09607887,34.41176605,13.16470623,24.65171623,430,21.24705887,26,313.7708435,90.05031586
Angangxi,ASIA,0.27,47.18209877,123.7746914,291.8888889,-15.64611106,6,134.8148148,21.5621915,22.53696562,-15.64611106,1,11.68034571,291.8888889,21.5621915,27.66818477,-24.15937113,4.026688355,413.3333333,51.82755435,6,1507.916658,120.012374
Angarsk,ASIA,1.81,52.59990792,103.8554328,253.8232044,-17.614936,32.0718232,102.3535912,16.95670123,22.9498113,-14.29953772,7,11.26146857,253.8232044,16.95670123,24.56021577,-24.51277379,0.424926322,428.0994475,49.07298945,25.98895028,1395.633958,89.35957943
Angeles,MALAY ARCHIPELAGO,16.07477916,15.09566348,120.6245537,559.0923946,26.03169335,60.82151805,538.0694937,28.85136319,64.43298444,26.57059884,7.714464315,8.556879643,1382.578611,27.37382287,34.47470323,21.20471003,27.3987147,2326.289208,13.2699932,36.23187515,109.9550276,97.2679516
Angers,EUROPE,2.24,47.50186012,-0.591517857,131.4375,5.600333269,216.3839286,77.07142857,18.66211854,38.63239918,18.66211854,42.74107143,8.955971284,227.1919643,6.364139829,25.32696895,2.14462058,11.85052708,720.9553571,23.18234863,131.4375,536.2383894,20.80910473
Angoche,AFRICA,0.28,-16.16369048,39.88392857,529.8214286,23.18059594,81.17857143,214.0714286,28.4663635,63.58622156,25.01324592,5.428571429,10.54017285,584.5714286,28.32145323,33.78282356,17.20984827,26.27452162,1008.785714,16.57297529,44.32142857,221.6375999,89.93293571
Angol,SOUTH AMERICA,0.22,-37.75,-72.75,68,7.864666939,602,228,17.5878334,52.11455536,17.5878334,18,11.64916706,631,8.403166771,25.89800072,3.545000076,12.46733379,1151,22.35300064,68,394.4924316,81.97621918
Angra do Heroismo,EUROPE,0.06,38.66666667,-27.25,188,15.75,339,136,23.00098038,41.20658493,22.15392113,38,5.839215279,400,16.90294075,26.94117546,12.77058792,18.90539169,1101,14.17058754,143,294.9658813,37.2414856
Angren,ASIA,1.12,41.05654762,70.04315476,36.39285714,0.127443484,171.4642857,77.48214285,23.4316162,33.16042634,22.24081223,5.535714285,12.73335539,203.0714286,6.553984974,32.90871484,-5.495267953,11.95484574,518.5,38.40398244,27.94642857,939.0087302,55.99843482
Ankang,ASIA,8.28,32.82568438,108.7491948,381.3574879,4.203223618,36.08816425,160.4202899,24.58286674,28.91538729,4.203223618,9.399758455,8.949186644,419.4118358,23.53538802,29.86189601,-1.080547105,14.58908968,904.8550725,30.94244304,36.08816425,820.4428854,68.07512144
Ankara,ASIA,8.1,39.99897119,32.71183128,57.87901235,0.463689115,133.2432099,52.80123457,20.92959276,35.2353143,20.53470717,10.11358025,12.09097051,136.908642,5.763492834,29.54410598,-4.763524649,10.80571253,400.7617284,34.30763093,39.17530864,832.7779095,41.34934657
Anlu,ASIA,12.1291555,31.28006038,113.647087,457.7940658,4.765971457,94.26123645,184.1095611,26.89689668,26.46507225,4.765971457,22.10402617,8.575588317,482.0382123,24.8837281,31.46616611,-0.936782166,16.19912961,1101.409241,32.40294835,94.26123645,899.0156761,55.93959499
Ann Arbor,NORTH AMERICA,3.28,42.28912602,-83.72992886,251.9573171,-3.602466468,162.3536585,88.08841463,21.11199748,28.20916128,-2.502439102,46.68292683,10.54415194,251.9573171,21.11199748,28.30211268,-9.075518251,9.071672815,856.652439,37.37763111,162.2987805,999.7832139,19.00094685
Anna Regina,SOUTH AMERICA,0.06,7.333333333,-58.5,343,26.625,320,272,27.82321548,77.5554657,26.88154793,73,6.575595379,702,26.89404869,31.87857056,23.39999962,27.13631058,1888,8.478570938,274,51.08900452,41.67232132
Annaba,AFRICA,1.66,36.88504016,7.699799197,51.81927711,11.64939705,398.0722892,145.9879518,24.85136432,40.5360269,24.3372281,4,10.03883126,398.0722892,11.98407732,31.81467324,7.069065516,17.7107845,843.8072289,24.74560763,32.3313253,546.5059796,68.82725038
Annapolis,NORTH AMERICA,0.94,39.00886525,-76.56382979,307.3829787,2.417854535,245.5425532,108.5425532,23.91171206,31.66464935,2.417854535,73.0106383,10.84656159,310.7765957,21.69448134,30.64751631,-3.605930998,13.29514462,1109.893617,34.25344715,245.5425532,871.207752,12.28097249
Annecy,EUROPE,1.32,45.96527778,6.061237374,247.8787879,1.559829522,274.5378788,101.6893939,17.88988587,34.38024925,8.905315689,72.4469697,9.544452198,302.5909091,9.704130101,25.12829516,-2.630992411,9.546493624,1058.227273,27.75928753,233.5530303,664.3290271,12.49332796
Anqing,ASIA,1.77,30.60310734,116.9995292,605.559322,5.698974445,141.1299435,287.0734463,27.41390145,24.26153782,5.698974445,32.52542373,7.558937838,618.4576271,20.97599853,32.14886368,0.993039528,16.78148377,1505.299435,31.15582367,141.1299435,885.1853903,55.68890055
Ansan,ASIA,5.259219283,37.42177876,126.8056438,722.9919022,-1.575349853,80.9264846,306.9843978,23.76603812,24.90294452,-1.575349853,25.01009999,9.125788729,739.724425,23.37335191,28.8410734,-7.803761041,11.62697065,1286.904691,36.64483458,80.9264846,1028.078704,89.19527865
Anshan,ASIA,14.28052935,41.24465834,122.9958796,433.9731866,-7.533401825,20.26012124,183.3138691,23.14727088,24.01042852,-7.533401825,5.47032146,10.52679256,433.9731866,23.14727088,28.10284387,-15.73782858,8.798950767,686.8010125,43.84067253,20.26012124,1242.423813,104.391363
Anshun,ASIA,8.84,26.27319005,105.7613122,592.0520362,6.236921705,60.72171946,231.7567873,22.00253303,31.95150684,6.236921705,17.97624434,8.002867374,592.9954751,21.63544321,26.48629407,1.438591617,14.75166232,1189.364253,25.04770239,60.72171946,638.9453177,75.20209309
Antalaha,AFRICA,0.08,-14.84375,50.25,990.75,22.45632195,562.125,358.375,27.07843399,60.71068859,24.1102469,96.375,7.756803453,992.125,27.02907038,31.36318064,18.58655214,24.89848828,2808,12.77662849,332.25,191.0735359,37.13269043
Antalya,ASIA,2.86,36.94376457,30.67132867,35.68531468,8.803747657,386.7832168,142.6923077,27.30026944,39.19305939,26.85130716,8.769230769,13.00627014,386.7832168,8.803747657,35.84564545,2.663174653,17.7672079,734.3601399,33.18247085,31.45804196,753.3215712,78.8544045
Antananarivo,AFRICA,8.64,-18.83526235,47.43412423,756.025463,15.38430867,27.48611111,297.5023148,21.12027821,65.77189901,15.38430867,8.432870369,11.31374008,802.005787,21.10379642,26.30647933,9.107098297,18.73836453,1275.28125,17.19938114,27.48611111,242.2903846,105.4842108
Antigonish,NORTH AMERICA,0.16,45.66666667,-62.02604167,302.0625,-5.501399696,325,147,16.95058203,26.56365204,13.27653092,89,9.393272102,428.6875,3.516102865,23.48900795,-11.87236434,5.778688937,1355.5,35.36137199,287.375,920.3398285,17.11609447
Antofagasta,SOUTH AMERICA,0.62,-23.58736559,-70.4233871,0,13.97449804,0,0.838709678,20.18319244,49.2321829,20.18319244,0,7.01768286,0.838709678,15.16663448,24.29419225,10.04934806,16.98077143,0.838709678,14.24484419,0,253.6186359,22.34904345
Antsirabe,AFRICA,3.54,-19.82627119,47.10334275,811.2457627,12.18749804,47.60451977,296.8813559,18.67746094,65.08442271,12.18749804,14.31920904,12.54164665,811.2457627,18.67746094,24.74129386,5.473406795,15.96783669,1438.853107,19.26788691,47.60451977,271.8369535,89.6528955
Antsiranana,AFRICA,0.25,-12.25666667,49.25,523.32,24.08732056,57.92,316.8,26.7794767,72.11770081,24.22727783,12,8.901435852,788.76,26.6437072,31.45831398,19.11548943,25.7510392,1158.44,12.34282455,52.84,118.6969153,116.1125864
Antsohihy,AFRICA,0.04,-14.83333333,47.91666667,808,24.35250092,9,446,27.40633392,72.49172211,24.35250092,2,11.17024994,1063,27.2456665,33.23400116,17.82500076,26.30304146,1533,15.4090004,9,134.1311951,123.7030792
Antwerpen,EUROPE,13.65173988,51.18473034,4.492693404,206.9508066,3.791296479,189.5835598,75.67487636,17.31332903,33.92238169,6.376966812,49.64549529,7.605798089,220.3131985,7.742970093,22.95760984,0.536598413,10.39790963,786.7430891,22.42101126,163.8843793,554.6091263,13.31222226
Anuradhapura,ASIA,1.31,8.361959288,80.37150127,260.0381679,25.51966918,458.496183,250.7099237,28.7020826,67.76780258,28.42731798,10.30534351,8.457781915,709.1908397,26.22322786,33.44568017,20.96453409,27.42141428,1320.19084,12.48114608,78.05343511,137.3768057,76.86415881
Anxi,ASIA,0.16,40.58333333,95.75,28,-6.633166313,3,12,22.71150017,33.60150146,-6.633166313,1,16.08033371,28,22.71150017,31.38899994,-16.46699905,8.903833389,47,47.85599899,3,1198.066162,73.31187439
Anyang,ASIA,25.25694958,36.16405891,114.4156728,345.8105813,0.641124288,15.5068004,157.3336053,26.01911107,28.61466274,0.641124288,3.408437311,10.8162769,352.8899265,24.48463642,31.66086441,-6.138316515,13.88636061,547.1137796,37.79918085,15.5068004,1025.656382,109.0261081
Anzhero Sudzhensk,ASIA,1.01,56.12128713,85.99257426,204.9306931,-15.91184516,82.28712871,70,15.74351298,23.202532,-11.5866204,17.92079208,10.62653197,204.9306931,15.74351298,23.98094011,-21.81467307,0.083516062,526.8910891,45.79561298,64.93069307,1281.723699,41.24921058
Aomori,ASIA,1.47,40.86621315,140.6978458,384.6190476,-0.631255956,334.3741497,141.8979592,20.90333296,24.06954916,7.536094373,70.59863946,7.53037452,392.9863946,18.36272284,26.69523435,-4.577131387,9.942233403,1257.741497,31.27236582,222.7891157,882.918369,22.74616358
Apalachicola,NORTH AMERICA,0.06,29.75,-85.02777778,523.3333333,12.82291126,317,206,27.18449656,38.82561239,23.11524582,75.66666667,9.650323232,572.3333333,27.07999547,31.7984492,6.943281809,20.33297793,1492.666667,24.85516739,280.6666667,591.0229289,35.12054952
Apatity,EUROPE,0.68,67.61519608,33.36642157,194.1617647,-12.95400524,98.11764706,69.45588235,11.00482348,19.89384132,-9.370576057,25.94117647,7.107833337,203.117647,9.760603218,17.61192678,-18.11845592,-1.370688755,568.3088235,35.73038191,84.10294117,969.5679842,34.45990288
Apatzingan,NORTH AMERICA,0.27,19.13888889,-102.4166667,187.6666667,23.46405538,31.66666667,205,27.7299455,69.08994802,25.51577759,3.666666666,15.68577798,572.3333333,26.04372215,36.85466766,14.15133349,25.64052773,891.3333333,22.70333417,12,164.7681224,111.1623967
Apia,POLYNESIA,0.47,-13.80496454,-171.8156028,1173.510638,24.60173375,504.8723405,493.2765958,25.97254928,79.51009629,24.65801738,151.1914894,6.112281809,1280.957447,25.87776476,29.22419219,21.539008,25.33767862,3423.148936,7.685184195,466.6808511,55.5640228,39.4492918
Apodi,SOUTH AMERICA,0.01,-5.583333334,-37.83333333,74,25.23633385,110,201,28.24816704,69.16142273,27.83316612,3,10.54850006,493,27.33133316,34.11600113,18.86400032,27.02958298,784,15.25200081,10,120.6050644,104.8979416
Apolo,SOUTH AMERICA,0.04,-14.66666667,-68.45833333,442,18.45241642,107.5,211.5,21.19158268,74.77801895,18.55208301,27.5,12.29579163,610,20.97125053,27.54899979,11.10549974,20.11393738,1347,16.44349956,100.5,114.9943848,61.7365036
Appleton,NORTH AMERICA,3.118951695,44.29490784,-88.44686138,273.8393844,-7.033859009,94.57965098,96.32743975,20.39303594,25.9094027,-7.033859009,26.07374273,10.75183154,273.9153742,20.35350875,27.68310592,-13.81225405,7.226266116,778.5607315,41.49535988,94.57965098,1107.839055,37.57090294
Apsheronsk,EUROPE,0.43,44.5,39.67829457,272.2790698,1.601810048,382.1860465,157.3023256,20.94234844,30.89531699,10.41206972,85,9.29949206,431.3255814,3.302515551,27.25909393,-2.840558141,11.40048444,1253.744186,30.09965214,259.2790698,786.2305355,23.73816158
Apucarana,SOUTH AMERICA,0.55,-23.5,-51.5,538,15.06500053,281,194,21.62983322,63.51140594,16.24650002,60,12.48316669,538,21.62983322,27.69799995,8.043000221,18.60316658,1511,19.65499878,231,270.2339172,33.20063019
Aqadyr,ASIA,0.05,48.33333333,72.83333333,73,-13.56183338,52,28,19.97633362,25.85407639,-12.07416725,10,12.6307497,79,18.2681675,28.86599922,-19.98800087,3.569541693,236,48.85400009,46,1374.149048,25.29739952
Aqsay,ASIA,0.17,51.22058824,52.95588235,95.35294118,-10.950186,70.29411764,36.64705882,21.65576497,23.09541691,-3.26587245,17,10.73765687,95.35294118,21.65576497,29.98970615,-16.5028231,5.574833365,308.1764706,46.49252903,54.35294118,1344.466883,22.65272062
Aqtau,ASIA,0.07,43.66666667,51.17857143,19.14285714,-0.198285707,27.14285714,15.14285714,25.41369002,21.73297037,25.41369002,6,7.677392686,41.28571428,11.74609538,31.31499972,-4.00042854,12.4890773,122.8571429,35.31542914,19.14285714,1048.598685,28.86244392
Aqtobe,ASIA,0.96,50.33072917,57.14149306,89.92708333,-12.30392555,75.17708333,33.96875,21.30481503,24.0303371,-11.18613199,20.96875,11.54577688,92.53125,19.5378806,29.90613556,-18.14084313,4.832473536,319,48.04697812,67.3125,1381.902327,14.17931829
Aquidauana,SOUTH AMERICA,0.42,-20.42063492,-55.83333333,612.2380952,20.8396343,131.047619,227.6666667,26.67418961,64.13266681,20.8396343,31.04761905,12.23263068,612.2380952,26.67418961,32.67895054,13.60500045,24.24444625,1443.095238,19.07395099,131.047619,251.5252438,52.08061781
Ar Ramadi,ASIA,0.72,33.48148148,43.25694444,0,10.84756676,60.66666667,22,33.73207426,36.86265479,33.73207426,0,15.07450542,60.66666667,10.84756676,43.87602737,2.985944466,22.72304225,116.8055556,40.89008204,0,937.6433411,85.45798471
Ar Raqqah,ASIA,0.55,35.9969697,38.97272727,1,7.946730345,81.09090909,32.01818182,30.32675486,36.53983404,30.32675486,0,13.43806681,87.69090909,9.495248621,38.84752787,2.072218123,19.31648799,166.4545455,36.77531003,1,916.1021851,80.04097637
Ar Rutbah,ASIA,0.1,33.08333333,40.25,0,8.63983345,50,21,29.0858326,39.96366882,29.0858326,0,14.72141647,52,10.31383324,38.14099884,1.30400002,19.16320801,117,36.83699799,0,844.5604248,75.58546448
Aracaju,SOUTH AMERICA,2.43,-10.86076818,-37.14300412,258.6584362,24.20155623,488.3827161,274.2098766,26.92171054,69.134017,26.48679696,41.76131688,6.938092548,713.0987655,25.50593272,30.62621272,20.58901451,25.68549294,1534.226337,10.03719821,147.7530864,114.0220661,61.6263269
Aracati,SOUTH AMERICA,0.06,-4.5,-37.83333333,122,26.12333298,270,276,27.61633301,79.4295578,27.39316559,5,9.215416908,686,26.69666672,32.63199997,21.03000069,26.86429214,1091,11.60199928,17,61.64476395,106.2214127
Aracatuba,SOUTH AMERICA,0.79,-21.16350211,-50.48734177,583.3670886,18.82313067,109.9620253,220.5443038,24.91369701,63.63743654,19.00636195,17.96202532,12.13277394,583.3670886,24.91369701,30.43775868,11.37226584,22.31682082,1210.810127,19.06549294,81.15189873,254.891876,68.47601463
Aracuai,SOUTH AMERICA,0.13,-16.83333333,-42.08333333,324,21.59049988,16,167,25.76049995,69.27713776,21.59049988,3.999999999,13.50349998,474,25.07766724,32.82300186,13.33100033,24.03450012,842,19.49200058,16,170.9922638,89.42501068
Arad,EUROPE,0.86,46.22674419,21.27422481,194.5813953,0.199116245,112.4767442,78.56976744,20.30987243,33.42100157,1.818573672,31,10.74182934,202.6744186,18.79152522,27.65415161,-4.486965157,10.50533816,579.627907,32.1411171,99.29069767,817.8914341,28.24917084
Araguaina,SOUTH AMERICA,0.17,-7.166666667,-48.25,245,25.08950043,821,277,26.52999878,69.94335175,25.93766785,15,11.79174995,821,25.08950043,34.66400146,17.80500031,25.70462418,1778,16.85900116,73,57.81168747,67.20335388
Araguari,SOUTH AMERICA,0.5,-18.6,-48.24,476.48,19.21071381,44.96,331.72,22.60727318,70.22442413,19.61713303,9.64,11.77372704,831.76,22.52121361,28.7675206,12.00167992,21.51153,1572.28,16.76584007,32.16,149.5279358,86.39805756
Arak,ASIA,0.93,34.12275986,49.65412186,5.462365592,0.667433693,119.827957,49.27956989,24.9869186,33.09790564,24.31096924,0,13.4805859,128.0215054,2.298093119,34.69689211,-6.03513989,13.04021665,274.0537634,40.73203146,2,975.2296713,77.60985106
Aral,ASIA,0.23,46.83333333,61.61594203,26.82608696,-10.59973194,34.60869565,22.82608696,25.04017448,21.87519579,22.65067366,7.608695653,11.01996729,54.65217392,-0.726188387,33.87778423,-16.49865267,7.546943872,157.9130435,50.37643499,23.21739131,1458.549454,34.82296703
Aranyaprathet,ASIA,0.11,13.75,102.4621212,301.2727273,25.63033329,51.45454546,249.9090909,29.49227281,60.44982945,26.19989447,6,9.884023059,636.1818182,27.88030347,35.50499933,19.15454518,27.7112621,1347.636364,16.35045416,33.90909091,150.1115861,76.25834864
Arapiraca,SOUTH AMERICA,0.22,-9.693181818,-36.70833333,102.6363636,21.64882556,316.0454545,134.9090909,25.60431004,68.24176372,24.85028787,16.63636364,9.095670527,381.7272727,22.32944731,30.81709055,17.48836327,23.91956633,762.8636363,13.32872729,61.31818182,167.5326399,68.70683115
Arapongas,SOUTH AMERICA,0.55,-23.36060606,-51.48636364,535.8909091,15.41833309,268.3272727,191.0909091,21.85570259,64.79681743,16.50363929,55.81818182,12.6101911,535.8909091,21.85570259,27.80623616,8.345199966,18.94748823,1490.781818,19.46103609,217.8909091,266.6516624,34.65006811
Arar,ASIA,0.33,31,40.99494949,2,10.74602075,37.93939394,17.93939394,33.55190497,37.37637364,33.1888222,0,14.68760375,38.93939394,12.176606,42.54845382,3.251999942,22.60644855,84.93939394,39.29645376,0,940.2613007,80.53865745
Ararangua,SOUTH AMERICA,0.4,-28.90625,-49.53333333,415.95,15.20876265,280.9,149.725,23.48969584,51.02629356,15.88216271,82.15,9.857480764,415.95,23.48969584,28.53647504,9.218325114,19.36775756,1315.6,19.31815042,261.5,338.4901878,20.9053627
Ararat,AUSTRALIA,0.15,-37.25,142.9055556,106.4,7.902711073,197.4000001,69.80000002,18.39752172,48.86036351,18.39752172,33,11.72501691,204.4000001,8.533744366,27.24946683,3.25266676,13.03170293,628.7333335,23.9967996,106.4,429.2325623,26.82430001
Arauca,SOUTH AMERICA,0.12,7.097222222,-70.80555556,217,25.99844392,903.8333333,330.8333333,28.18952688,72.68888219,27.45688883,11.83333333,9.317082564,906.6666666,26.02241643,34.43066597,21.61266677,27.03480498,1951.666667,12.8179992,62.33333334,85.20947774,70.12832006
Araxa,SOUTH AMERICA,0.38,-19.55482456,-47,699.9210526,17.31896932,46.97368421,348.3421053,21.63535073,66.79790457,17.31896932,14,11.02320787,863.9473684,21.40658755,26.68034197,10.17855268,19.91930184,1634.473684,16.50178929,46.97368421,185.1107627,83.27909048
Arba Minch,AFRICA,0.36,6.083333333,37.53472222,128.4166667,21.70012585,184.25,135.5833334,23.81686147,75.08615049,23.23241631,24.58333333,13.03647924,336.75,23.24184767,31.60308266,14.24274977,22.65455945,868.5833335,17.36033328,84.25000001,84.97525533,51.33549658
Arcata,NORTH AMERICA,0.3,40.91666667,-124.1194444,47.13333333,8.601017221,538.2,196.7666667,15.66364943,57.01917623,15.28476206,5,10.19342581,564.9,8.989882978,21.72704252,3.851888045,11.97104715,1160.7,17.87515386,36.56666667,289.6709829,77.11557083
Archangel,EUROPE,3.19,64.59665622,40.54388715,179.9623824,-11.58193896,94.17554859,64.52351097,14.01794307,21.36426553,-9.796937405,24.48589342,8.198448311,185.200627,10.70826386,21.20264209,-17.17111606,1.069903696,537.9090909,38.37375764,79.81504702,1024.263315,32.85209566
Arcoverde,SOUTH AMERICA,0.14,-8.375,-37.08333333,105,19.77466679,195,133.5,23.21783352,70.81457519,21.90100002,15,9.693624973,331.5,22.10925007,28.90549946,15.21700001,21.65356255,747,13.68849945,59,145.6180039,61.51611709
Arctic Bay,NORTH AMERICA,0.01,73.08333333,-85.25,93,-29.28848457,13,37,3.670302868,13.08109665,-29.28848457,3,5.486212254,99,2.519393921,8.71454525,-33.22545624,-13.66295433,207,41.94000244,13,1358.81665,70.56396484
Ardabil,ASIA,0.79,38.29852321,48.24367089,45.82278481,-0.50012233,79.12658227,52.65822785,17.98613268,36.09113597,17.83988016,10,12.24814542,143.5822785,8.765780328,26.89063292,-7.046974696,9.312847089,356.9493671,33.93760676,37.24050633,751.7682951,44.8318916
Ardmore,NORTH AMERICA,0.39,34.22863248,-97.16880342,223.8974359,6.115384676,152.1538462,128.2307692,27.25972151,35.15668771,6.115384676,42.97435897,12.76962549,316.7179487,21.19849562,34.56317794,-1.758794861,16.9710734,949.1282051,36.32197307,152.1538462,855.0920332,34.30251831
Arecibo,SOUTH AMERICA,0.87,18.48563218,-66.8045977,452.4367817,23.39808427,251.3218391,185.6321839,26.46361305,77.92147371,23.39808427,71.45977012,12.42883769,534.9655173,25.9090602,32.66467546,16.7139056,25.06417053,1651.448276,15.95076986,251.3218391,129.9481764,28.28416356
Arequipa,SOUTH AMERICA,1.65,-16.35909091,-71.56818182,54.57575757,13.59459881,1.733333333,26.51515151,15.14901695,84.78291423,13.82217905,0,14.43408505,70.83030302,15.09231604,22.5405697,5.501824228,14.53586489,79.80606059,17.03874617,0.024242424,64.71812695,135.7475522
Arezzo,EUROPE,0.62,43.50268817,11.82258065,154.9354839,5.562306266,198.5806452,101.9677419,21.73984891,35.45746465,21.73984891,38.03225806,9.874064446,278.0322581,9.782209673,29.15451653,1.306806441,13.38425252,843.6451613,27.84770947,154.9354839,664.1812035,25.48572996
Argentia,NORTH AMERICA,0.05,47.33333333,-54,325,-3.541790962,340,137,14.04005051,26.28975678,5.739800924,88.99999999,7.278731346,375,7.909204006,19.03731346,-8.649253845,4.914614677,1321,27.68656731,284,706.9838257,12.22004223
Arica,SOUTH AMERICA,0.41,-18.42682927,-70.33333333,0,15.41288543,1.87804878,1,21.98715056,46.04940377,21.98715056,0,6.052496166,1.87804878,15.43507755,25.7815983,12.6461565,18.50143795,1.87804878,13.1354418,0,269.4178184,32.54505553
Arjona,SOUTH AMERICA,0.15,10.31111111,-75.41111111,243.7333333,27.02802188,415.6,219.5333333,27.98212331,78.88610433,27.49609985,14.2,10.25126661,532.1333333,27.40164426,34.10046717,21.10373357,27.53397255,1282.533333,12.9967336,46.26666667,40.74537328,64.72130788
Armavir,EUROPE,0.94,45.04166667,41.07535461,205.8723404,-0.635058494,109.5,84.4893617,21.68573377,30.39748251,0.720647184,29.09574468,10.58600192,220.2446809,19.76146105,29.24622392,-5.578542583,10.78141755,621.2340426,34.82476588,98.90425532,905.7803325,30.24866981
Armenia,SOUTH AMERICA,0.42,4.583333333,-75.72420635,437.6666666,19.36549932,679.1904762,268.3333333,20.17155988,90.03689684,19.99887362,88.42857144,9.856504418,679.1904762,19.36549932,25.42895204,14.48326209,19.84569018,2069.904762,10.94568995,343.7857143,36.34299224,33.27155685
Armidale,AUSTRALIA,0.28,-30.47916667,151.6160714,299,6.995006084,127.6071429,117.5714286,19.29394061,49.48528058,6.995006084,39.67857144,12.93140752,299.9642857,18.60647624,26.48307133,0.352357153,13.37925114,784.3214286,26.13071442,127.6071429,496.2476164,37.81079074
Arqalyq,ASIA,0.34,50.30637255,66.8627451,72.14705882,-14.65343127,54.32352941,26.79411765,19.65506408,23.8941596,-10.48997558,12.32352941,11.80583581,73.17647058,18.02686293,28.50711766,-20.90185334,2.94087377,241.5294118,49.40897078,45.20588236,1420.186818,19.50827677
Arras,EUROPE,0.91,50.33333333,2.731684982,175.6813187,3.743659302,164.967033,68,16.68760551,34.59855945,6.178256333,44,7.646081474,197.1868132,7.201857106,22.80560416,0.706637371,10.05548457,695.6153846,22.09896702,145.7472527,533.3309319,12.56397441
Arrecife,AFRICA,0.35,29.00952381,-13.60714286,4.4,17.32165026,74.85714286,28.31428571,23.24280374,56.02771672,22.60462363,0,8.732405881,74.85714286,17.32165026,28.22398927,12.63751826,20.14280445,127.3428571,15.58647101,1.114285714,239.1843702,89.24631762
Arroyos y Esteros,SOUTH AMERICA,0.02,-25,-57.16666667,492,18.39616585,188,179,27.15250015,53.41960144,18.39616585,48,10.89866638,493,26.48799896,32.91799927,12.51599979,22.92300034,1446,20.40200043,188,363.9650269,36.59712982
Arsenyev,ASIA,0.32,44.19010417,133.2447917,309.28125,-16.81742656,49.6875,122.6875,19.7988804,26.39992332,-16.81742656,13.34375,14.83819246,339.40625,18.56956238,27.72337514,-28.4862811,2.998481773,712.40625,56.20965815,49.6875,1478.135376,65.0022862
Artemisa,NORTH AMERICA,0.23,22.85144928,-82.81884058,598,21.94047803,177.173913,221.4347826,27.19828199,61.24910487,21.94047803,53.2173913,9.391655922,616.3913044,27.19205757,31.94982587,16.6172181,24.80865445,1538.869565,15.33260777,177.173913,218.2941278,51.68315954
Artemovsk,ASIA,0.13,54.41666667,93.41666667,263,-16.04083252,60,99,14.64449978,26.11446571,-13.42266655,14,11.8977499,263,14.64449978,22.94199944,-22.61800003,-0.53745836,575,45.55999756,51,1239.040405,58.49067688
Artemovskiy,ASIA,0.35,57.41190476,61.84285714,223.8,-13.15850026,63.82857143,85.94285714,16.94161415,23.54500182,-11.03968571,14.02857143,9.958314705,223.8,16.94161415,23.55291492,-18.74140064,2.313007239,486.3714286,42.29431403,53,1208.046376,56.66669573
Artigas,SOUTH AMERICA,0.1,-30.375,-56.5,419.5,13.55791664,281,165.5,24.75849915,48.64319038,13.55791664,88,11.87720823,451.5,24.26699924,31.97099876,7.553999901,19.11072922,1477,24.41699886,281,459.5589294,18.62142086
Arua,AFRICA,7.35,3.173809524,30.83798186,144.2911565,22.45112769,548.1714286,202.2462585,25.45696481,74.09711056,25.08165232,18.2952381,11.19262096,589.4789116,22.82961789,32.38508823,17.276641,23.87744601,1430.440816,15.10844722,92.8707483,118.808763,52.69289429
Arusha,AFRICA,0.34,-3.333333333,36.64705882,272.7058824,17.15979486,34.4117647,237.8235294,21.24952047,68.13486167,17.5078235,8.294117645,10.97242675,483.8823529,20.26359805,28.29517712,12.19352986,19.543419,876.5882353,16.10164749,26.11764705,170.2230521,91.98831985
Arvayheer,ASIA,0.2,46.33333333,102.75,187,-13.38199997,4.999999998,78,14.78199959,29.66397285,-13.38199997,1,12.66800022,187,14.78199959,21.73600006,-20.96899986,0.96966666,255,42.70500183,4.999999998,1152.026489,119.3437119
Arviat,NORTH AMERICA,0.01,61.16666667,-94.08333333,124,-27.16896439,35,57,9.16379261,15.47686672,-26.67068863,7,7.520689964,139,8.986782074,15.75862026,-32.8344841,-9.037069321,290,48.59310532,29,1511.180176,61.15576172
Arxan,ASIA,0.09,47.22222222,119.9166667,286.6666667,-22.24327787,17.66666667,127.3333333,14.52233378,25.97812335,-22.24327787,5,14.00252787,286.6666667,14.52233378,22.51266734,-31.38899994,-2.896680514,442.6666667,53.901666,17.66666667,1496.563192,104.061086
Arys,ASIA,0.32,42.47395833,68.75,15.3125,-0.610052057,121.25,45.3125,28.24467707,29.72611833,26.31300998,2,13.38935411,125.5625,7.818791628,38.00837517,-7.033937365,13.92061996,316.8125,45.04231381,11,1161.211273,62.38541222
Arzamas,EUROPE,0.92,55.44836957,43.7798913,189.4782609,-10.63148014,83.28260869,75.18478261,16.75730297,21.50422268,-9.715003999,22.38043478,8.473785359,189.4782609,16.75730297,23.48573921,-15.91173905,3.429959694,505.6956522,39.39747686,73.30434782,1117.144985,37.76023575
As Salt,ASIA,0.27,32.08333333,35.66666667,0,8.703166962,255,93,23.81083298,39.71038818,23.75883293,0,10.36599922,255,8.703166962,30.23699951,4.132999897,16.78199959,398,26.10400009,0,632.5244141,109.716774
As Samawah,ASIA,0.71,31.35798122,45.2370892,0,13.2401429,66.43661972,25.61971831,35.64032466,38.25835977,35.64032466,0,14.39336727,68.12676056,15.01130484,44.77650736,7.15545064,25.20753605,113.3098592,37.62105679,0,915.8991854,95.46361133
As Sulaymaniyah,ASIA,0.68,35.59313725,45.38235294,0,6.145749991,393.7647059,140.117647,30.85545613,31.68555507,30.85545613,0,12.56598515,409.0882353,7.418083458,39.85796973,0.200323527,18.49134305,750.117647,39.65764685,0,1009.553971,94.5766514
As Sulayyil,ASIA,0.09,20.5,45.5,3,19.84083366,18,34,37.01816559,45.01820755,37.01816559,0,15.28908348,61,25.60333252,44.93899918,10.97700024,28.96495819,86,33.96199799,3,709.826416,124.4183044
As Suwayda,ASIA,0.34,32.75,36.5245098,0,6.662813778,188.0588235,66.35294117,23.81039137,43.21767448,23.81039137,0,14.05203875,188.0588235,6.662813778,32.71876515,0.206529423,15.8246134,305.4705882,32.51223553,0,714.1825956,100.9119142
Asahikawa,ASIA,1.87,43.82263815,142.3453654,316.6363636,-6.851483898,195.0695187,140.9893048,19.1516025,24.6961004,-1.758344098,45.83957219,9.46270934,393.5989305,15.17848006,25.4964058,-12.81528361,6.44524624,1059.326203,38.31168949,158.2566845,1069.805282,36.02894604
Asbest,ASIA,0.69,57.05797101,61.42995169,227.8985507,-12.67921023,65.21739131,88.28985507,16.61018327,22.09932734,-10.46210617,15,9.185077225,227.8985507,16.61018327,23.36107312,-18.20240565,2.158809157,496.9855072,41.56347778,55.21739131,1180.867849,56.18309657
Ascension,NORTH AMERICA,0.1,31.15833333,-108.025,136.3,7.876700306,42.7,66.4,25.87138348,48.8117691,16.45508347,4,18.06980877,172.6,24.83013267,35.42799988,-1.590799975,16.82563705,290.4,37.01880073,19.8,732.380957,84.31150131
Asela,AFRICA,0.3,8,39.08333333,267,14.1619997,49,180,16.34149933,75.92398071,14.1619997,8,13.38691616,483,14.875,23.47699928,5.84499979,15.18804169,995,17.63199997,49,86.78868103,68.47528076
Ash Shatrah,ASIA,0.39,31.45940171,46.12393162,0,12.75172209,79.25641025,28.71794872,34.41418359,39.34815695,34.41418359,0,14.71873946,79.25641025,12.75172209,43.34989714,5.944563988,24.17977719,126.7435897,37.40533301,0,890.3635911,96.8271813
Ash Shihr,ASIA,0.13,14.83333333,49.58333333,7.999999999,24.04688644,5,5.999999999,30.3476181,49.39561081,27.67820549,0,8.472161293,13,26.26062202,35.20439529,18.05274773,27.50604439,27,17.15164757,2.999999999,265.9407043,61.7130394
Asha,EUROPE,0.53,55.04245283,57.21383648,212.6792453,-11.79405644,102.2264151,79.03773585,16.86358549,23.47432205,-4.046386763,24.35849056,9.657707629,212.6792453,16.86358549,23.76758496,-17.36888709,2.850405666,581.3962264,41.13647188,83.16981132,1174.298596,36.11680826
Ashburton1,POLYNESIA,0.183065006,-43.83333333,171.7303963,170.2352443,6.154103614,179.6475566,68.23524434,16.09355594,49.50921616,11.32198563,45.47048868,10.90661342,187.9409774,11.69933813,22.69142499,0.662066638,11.31724559,698.4704887,22.02935885,160.6467104,402.7376835,10.04867087
Ashburton2,POLYNESIA,0.006934994,-43.83333333,171.6666667,171,6.064499855,172,69,15.98266602,49.3115654,11.24283314,47,10.82191658,191,11.62783337,22.48800087,0.541999996,11.22945786,700,21.94600105,166,401.9651794,10.52118778
Asheville,NORTH AMERICA,2.91,35.60595647,-82.604811,335.7938144,3.327035418,303.2061856,127.5017182,21.79075804,40.30118689,10.01829484,83.90034364,13.21024822,340.3573883,10.3077937,28.95551893,-3.823199302,12.73257394,1254.453608,32.77871825,274.1821306,747.2186105,11.90161271
Ashgabat,ASIA,1.89,37.98500882,58.32275132,13.79365079,3.86391093,83.07936508,39.66666667,29.42861002,30.67255573,27.73526148,2.306878307,12.2082092,105.4814815,10.34939504,38.06867196,-1.733137574,16.55453167,242.5396825,39.80181017,10.92063492,1029.924467,61.7470168
Asino,ASIA,0.24,57.02777778,86.08680556,194.2916667,-16.39113847,69.29166667,69.625,16.9107914,22.04561599,-13.93204157,14.95833333,10.45530911,194.2916667,16.9107914,25.17354163,-22.25245817,0.463317716,472.0833333,47.42600091,55.25,1348.802719,45.72724438
Asmara,AFRICA,1.09,15.3646789,38.89220183,97.97247706,15.95838534,22.04587154,159.6238532,20.3612137,70.6204076,16.02168341,3.284403664,13.97558344,344.2844037,19.01675957,28.41006435,8.62835793,18.2724759,492.9174312,19.78170664,13.2477064,178.9555839,128.6017937
Asosa,AFRICA,0.1,10.08333333,34.5,80,20.58183289,667,236,24.4659996,68.31630707,23.13883209,1,12.84141636,667,20.58183289,32.81999969,14.02299976,22.18537521,1221,18.79700089,6,163.5898132,92.29860687
Assab,AFRICA,0.13,13.06410256,42.66666667,12,26.84876633,13.76923077,6,34.50610733,52.71788641,32.22332206,0,9.593498597,17.23076923,34.36438722,39.92968867,21.73816886,30.77932372,48.23076923,18.19151981,6,311.5413208,38.81734085
Assis,SOUTH AMERICA,0.81,-22.60185185,-50.46193416,521.7037037,17.25054762,168.037037,194.8765432,23.7636213,62.86533709,18.6771171,38.90123457,12.21942475,521.7037037,23.7636213,29.53634589,10.09900005,20.88963782,1224.469136,19.43734496,144.4320988,268.934594,50.883427
Astana,ASIA,1.93,51.20725389,71.39075993,108.880829,-14.33706283,49.98445596,46.04145078,19.62844489,22.99348443,-13.08145803,13.78238342,10.91977792,114.2901554,17.99051657,27.52195814,-19.96781845,2.907718918,296.2590674,47.48977809,45.09326425,1405.64204,37.14096443
Asti,EUROPE,0.41,44.93292683,8.168699187,135.1951219,4.01296333,119.8292683,79.51219512,22.19915511,29.79436679,4.01296333,30.58536585,8.500717605,199.2439024,12.64915415,28.13626824,-0.394780489,13.07189339,639.9512195,28.53104889,119.8292683,736.1934561,27.69361003
Astoria,NORTH AMERICA,0.15,46.25,-123.8777778,155.3333333,5.931543382,838.0666666,312.4666667,15.69021587,46.7215388,15.24499944,36.46666667,8.973364131,904,6.361975289,21.2342584,2.029073986,10.47563299,1977.733333,19.20518443,146.4,399.0256714,62.32102
Astrakhan,EUROPE,2.37,46.39345992,47.98030942,63.11814346,-3.723457859,41,23.15611814,23.89063658,24.27499428,-3.379023287,11,9.625864661,66.20675106,22.04744226,31.19539704,-8.455755387,10.12053499,211.4303797,39.65115274,41,1125.33646,18.68224571
Asuncion,SOUTH AMERICA,8.4,-25.27638889,-57.5421627,451.7023809,18.10792638,191.2011905,161.7928571,26.97286656,52.1762525,18.10792638,46.20357143,10.70019548,467.7619048,26.28489501,32.8948638,12.3868322,22.66253058,1422.644048,20.50803178,191.2011905,365.2201831,33.52407801
Aswan,AFRICA,0.73,24.12214612,32.84246575,0,17.28981935,0,0,33.73549035,47.3933477,18.71555503,0,15.41043918,0,18.71555503,41.73556168,9.220835947,26.42801935,0,32.51472499,0,679.845122,0
Asyut,AFRICA,8.010000001,27.48793175,30.90699126,0,13.71780415,1.458177278,1,29.21921862,46.07381818,24.62111982,0,14.28211991,1.513108614,15.10051113,37.05190517,6.056133563,22.23171228,1.971285893,30.99577164,0,637.1872866,31.38438404
At Bashy,ASIA,0.27,41.20679012,75.75617284,82.44444444,-13.06004969,21.33333333,35.62962963,16.04937603,27.22714113,-9.875407255,6,12.25034555,99.44444444,14.27630852,24.16259214,-20.8278892,3.395796289,200.5925926,44.99048233,20.40740741,1191.814132,61.52862464
At Taif,ASIA,1.05,21.33650794,40.38492063,24.36190476,15.19973328,24.79047619,31.34285714,27.58656324,50.51938513,24.05665873,3.180952382,13.35431649,52.88571429,21.44586343,34.31657108,7.883371489,21.58983029,145.1333333,26.43319938,24.07619048,510.5930414,62.86995602
Atakpame,AFRICA,0.29,7.583333333,1.083333333,253,24.75366592,513,190,28.17300034,72.29229736,27.16399956,11,10.25899982,513,24.75366592,34.79700089,20.6060009,26.57891655,1278,14.19099998,54,136.3306274,63.37695313
Atamyrat,ASIA,0.27,37.86111111,65.16666667,1,4.734388669,78.66666667,40.66666667,29.20083237,35.07126745,29.20083237,0,14.21161111,97.33333333,6.509944439,38.87333298,-1.642,16.84605598,169,40.51533127,1,990.2325033,90.85839081
Atar,AFRICA,0.11,20.58333333,-13.08333333,26,21.75333405,6,22,34.6554985,50.01248932,28.08316612,0,14.01549911,46,34.46183395,41.9469986,13.92300034,28.67241669,60,28.02399826,2,528.8111572,123.0914917
Atasu,ASIA,0.25,48.75,71.59333333,66.12,-13.0679533,52,27,20.52701347,25.67649277,-11.68543343,12,12.51611343,74.12,18.78548721,29.47240006,-19.27304062,4.091283455,230.24,48.74544235,45,1378.203521,22.66475021
Atbara,AFRICA,0.38,17.76096491,33.92763158,15.86842105,22.98302143,0,20.86842105,34.55920059,53.28372463,24.18360449,0,15.38593832,38.73684211,34.0183501,42.92444621,14.04905239,29.86501483,43.73684211,28.87539452,0,490.710287,141.5708947
Atbasar,ASIA,0.36,51.84259259,68.31712963,104.5277778,-15.7171718,61,43.11111111,19.04757913,23.86508507,-7.561064906,13,11.68111613,104.5277778,17.57880587,27.479806,-21.46669451,1.992347141,295.7222222,48.94650088,48,1442.832336,31.20378113
Athabasca,NORTH AMERICA,0.04,54.75,-113.3333333,252,-13.84483337,66,96,15.18000031,26.98389244,-4.605000019,18,11.86616707,252,15.18000031,22.36400032,-21.61100006,1.667750001,484,43.97499847,59,1188.113281,68.7735672
Athens1,NORTH AMERICA,1.86,33.97983871,-83.43458781,312.7688172,7.046295607,343.483871,139.8602151,25.56082612,39.35605016,16.99059021,83.18817204,12.76712732,379.2795699,8.649296632,32.59973124,0.159532261,16.48636308,1264.204301,32.44019785,258.9247312,748.0434879,15.85111092
Athens2,EUROPE,7.52,38.06948138,23.68927305,25.98271276,9.152345864,191.8670213,76.91356383,25.53565396,32.10786645,25.53565396,7.46143617,8.42901988,198.3869681,10.6640451,31.57545038,5.331630076,16.85884795,456.2287234,26.24381998,25.98271276,678.6104681,64.96532546
Atherton,AUSTRALIA,0.08,-17.25,145.4166667,903,16.05233383,223,415,23.22966766,54.55537415,18.74083328,34,9.789416313,1072,22.861166,28.52700043,10.58300018,20.07829094,2074,17.94400024,124,294.7061768,74.74919891
Ati,AFRICA,0.04,13.25,18.3125,80,26.32183409,0,171.25,32.9017086,59.3626461,26.32183409,0,14.85960436,395,28.36366653,41.18950081,16.15750074,29.35040665,492,25.03200007,0,268.5221252,141.8950348
Atikokan,NORTH AMERICA,0.16,48.83333333,-91.66666667,304,-14.56533337,94,104,17.10566711,24.85015297,-14.56533337,25,11.98175049,304,17.10566711,24.8579998,-23.3579998,2.259458303,772,48.2159996,94,1279.214233,45.88279343
Atkarsk,EUROPE,0.21,51.91666667,44.96031746,155.4285714,-9.077571415,94.47619048,54.47619048,19.04742913,23.63777815,-2.308039711,22,9.448531832,155.4285714,19.04742913,26.25309554,-13.71890477,5.190638678,464.4285714,39.9719994,79,1159.167079,25.15799123
Atlanta,NORTH AMERICA,57.33,33.90447119,-84.3893395,318.5567766,6.642611601,367.6727717,146.4685156,25.21486121,37.48522602,17.79431081,85.71916972,11.88180418,400.1118088,8.272479777,31.71036153,0.015557127,16.16623565,1329.241584,31.69480443,274.8581894,750.5551809,16.25790361
Atlantic City,NORTH AMERICA,0.44,39.40719697,-74.50757576,277.7727273,2.293136537,255.6818182,111.9318182,22.79258199,29.4606009,14.39842326,73.04545455,9.413017685,283.7272727,22.54875617,28.61157092,-3.33815502,12.53132612,1054.772727,31.94972662,240.7954545,839.1964208,12.69154839
Atlixco,NORTH AMERICA,0.36,18.9537037,-98.48148148,272.9444444,16.58793563,19.61111111,176.6111111,20.78515731,72.09195879,16.58793563,3.749999999,17.1079695,497.2777778,19.67685244,30.40855588,6.678305601,18.74907573,860.5555555,23.73025015,19.61111111,165.0666029,99.8936562
Atoyac,NORTH AMERICA,0.09,17.25,-100.5,421,26.08650017,19,263,27.82733345,79.62023926,26.57333374,1,11.16116714,652,27.44083405,33.63100052,19.61299896,27.02300072,1030,14.01800156,6,70.7714386,116.1626511
Atyrau,ASIA,0.87,47.14559387,51.87260536,43.10344827,-6.464245084,33,16.74712644,25.05341012,23.14480354,-5.074465543,9,10.40588499,46.68965517,23.23247136,33.06637972,-11.89310339,9.473123561,153.1264368,44.95948243,31.94252874,1286.524602,17.76776467
Auburn,NORTH AMERICA,1.14,32.6622807,-85.47295322,351.0263158,8.194063045,409.3157895,169.8947368,25.77714286,41.43257325,22.44989005,75.63157895,12.959193,442.5701754,9.673761669,32.46830756,1.190482441,17.23456845,1438.192982,31.27782465,270.1842105,713.2844212,22.54111703
Auckland,POLYNESIA,5.85,-36.88019943,174.7539886,289.2102564,11.07446323,417.5504274,145.2068376,19.32087091,46.25804975,19.30109002,88.15213675,8.059650778,417.5504274,11.07446323,24.1171133,6.700299595,15.15684351,1362.962393,17.41681362,288.8102564,335.0591607,15.67255438
Augsburg,EUROPE,2.68,48.41262438,10.84577114,308.488806,0.014101371,154.7537313,107.3246269,17.02570904,31.97601868,1.25972577,47.14925373,8.569217475,308.488806,17.02570904,23.14238463,-3.65461192,8.406813899,867.2238806,26.79699607,145.5932836,692.4390744,29.67601608
Augusta1,NORTH AMERICA,4.51,33.50776053,-82.09478936,329.45898,8.264610513,314.3968958,119.9268293,26.49146451,42.84018642,18.15205664,67.70731707,14.37210303,340.9711752,10.24712526,34.10742985,0.559279376,17.56923762,1170.439024,33.54815034,222.6097561,737.576529,17.16071568
Augusta2,NORTH AMERICA,0.41,44.3495935,-69.82926829,264.6341463,-5.747873748,251.2682927,106.902439,19.29462182,28.29110834,-5.444881951,70.85365854,11.22079017,303.7560976,2.526780419,26.6618289,-12.99968275,7.094826361,1101.853659,39.66151112,250.6341463,1006.938713,10.32924399
Aurangabad1,ASIA,25.14305501,24.78526547,84.35799959,143.7097666,18.31670807,34.98713273,304.4720307,32.68638684,38.4887968,26.20783788,3.698424528,11.94484479,802.6813231,29.00944609,41.25810123,10.22296125,26.14543483,1042.553076,31.03514002,24.33964595,578.3058243,132.970928
Aurangabad2,ASIA,4.46,19.91573244,75.26195815,149.3452915,21.47686728,34.23766816,161.4551569,30.60358085,49.44307525,24.13580964,1.717488789,13.47024104,463.0896861,25.34772701,39.74060301,12.49699101,25.75521178,708.2556054,27.24361199,8.293721972,362.8569499,111.5504307
Aurora1,NORTH AMERICA,5.402429107,39.70252368,-104.8716727,146.3960035,-0.108297651,39.49352033,63.25066839,21.08595653,40.13785925,-0.108297651,11.85398068,15.93358463,164.7003811,18.43328008,31.09508518,-8.601831005,9.957076902,410.5605556,39.69691623,39.49352033,864.020968,48.17243001
Aurora2,NORTH AMERICA,21.16853481,41.88320298,-88.23741326,308.0384106,-4.032265467,133.4090684,105.8889519,22.06233971,28.2146797,-4.032265467,34.99796394,11.34603197,308.2603618,21.79580303,29.46124691,-10.75116734,9.555887614,935.5088402,40.21241448,133.4090684,1050.266061,31.48009473
Austin,NORTH AMERICA,10.44,30.40205939,-97.79238506,196.7595785,10.45391995,155.6503831,119.8084291,28.04082363,38.63355873,11.68132679,47.53831418,12.26693494,284.7471264,23.2751953,34.87880528,3.131058392,19.6047523,839.2068966,31.74774702,154.9185824,714.4850552,33.31284288
Autlan,NORTH AMERICA,0.17,19.83333333,-104.4166667,425,18.94233322,53,239,24.06033325,67.16375732,20.57933426,3,16.48399925,674,23.62833405,33.44599914,8.902999878,21.88999939,1026,24.54299927,19,215.5402069,110.3365097
Auxerre,EUROPE,0.52,47.85416667,3.516025641,170.6346154,3.417397462,165.0961538,66.28846154,18.26308658,35.98775842,6.562782187,45.84615384,9.079493578,185.4230769,10.97542623,25.10463498,-0.125096152,10.64328214,681.2307692,25.22973042,147.6730769,602.6469727,11.52001254
Avare,SOUTH AMERICA,0.54,-23.0617284,-48.97067901,555.2777778,16.6909943,149.7407407,198.4259259,22.31790465,65.81872869,16.76406479,34.59259259,12.44062364,555.2777778,22.31790465,28.29085216,9.389444581,19.66237209,1242.111111,18.9014077,125.8518519,234.5334136,56.6684388
Aweil,AFRICA,0.08,8.833333333,27.33333333,131,25.56083298,4,206,30.04283333,62.38953781,26.16166687,0,13.50858307,536,26.09950066,38.54000092,16.88800049,27.28370857,863,21.65200043,0,186.0982208,105.4541092
Awka,AFRICA,7.733746498,6.170901211,7.029988156,257.860184,25.15595831,776.5089964,295.2273144,28.14310354,71.94527294,27.155688,7.962589185,8.755028713,776.5089964,25.15595831,33.4286407,21.25328098,26.59747259,1822.792006,12.17535972,51.98125514,116.3920373,71.07415852
Ayacucho,SOUTH AMERICA,0.31,-13.12096774,-74.25,161.8064516,14.6829299,26.80645161,122.3548387,16.54108041,80.26553443,14.69225311,6.451612904,14.504199,340.2903226,15.57946297,24.33741932,6.264903252,15.60143335,604.0967742,18.07251586,25.16129032,74.19209733,83.32199417
Ayakoz,ASIA,0.28,48,80.41071429,89,-13.74115487,65.07142857,38,19.88571439,26.51440334,-11.9387972,17,13.10327387,107.0714286,17.98186847,28.79750034,-20.62192781,3.66933935,318.2142857,49.41942651,59.07142857,1376.642543,28.05918312
Ayapel,SOUTH AMERICA,0.09,8.342592593,-75.16666667,265.3333333,27.3112776,849.6666665,362.8888888,28.49038908,83.01094225,28.25942569,31.33333334,10.13323106,1003.555555,27.38098081,34.40277651,22.19577853,27.79740249,2489.777777,12.20699798,121,46.75885985,60.61872355
Ayaviri,SOUTH AMERICA,0.05,-14.83333333,-70.66666667,355,4.237166882,8,165,8.92666626,69.80202484,4.237166882,1,18.32233238,423,8.877333641,18.13199997,-8.116999626,7.177916527,749,26.24900055,8,199.9228973,93.02079773
Aydin,ASIA,1.59,37.90041929,27.76677149,28.35849056,8.554621709,369.6289308,139.6666667,25.97325296,39.36475286,25.83091225,5.805031446,12.20629879,369.6289308,8.554621709,34.36427024,3.353735875,16.99785453,692.1572327,31.01053449,27.8490566,713.7830081,79.77140161
Ayorou,AFRICA,0.03,14.75,0.888888889,44.33333334,25.23788897,0,115,32.37805557,60.71473312,26.36366717,0,14.62422212,244.6666667,29.41750081,40.61833191,16.53133392,29.09316635,292.3333334,24.08699798,0,279.1252645,150.2682749
Ayounel el Atrous,AFRICA,0.02,16.66666667,-9.666666667,62,23.60283279,1,76,34.24950027,50.41766357,25.35549927,0,13.90216637,164,31.56700134,42.625,15.05099964,29.63641739,194,27.57400131,1,433.5999451,144.4257202
Ayr1,EUROPE,0.56,55.50595238,-4.668154762,210.4107143,4.489335256,270.7142857,113.4107143,14.11075815,37.60725423,10.29442326,52.125,6.362036203,322.4285714,7.176101361,18.39415281,1.476988241,9.006643295,986.9642857,16.91716416,163.3571429,398.9143835,25.90234828
Ayr2,AUSTRALIA,0.12,-19.5,147.3541667,666.7500001,19.30216646,59.25000001,263.5000001,27.2488327,52.19434548,20.12312508,13,10.01604128,678.7500001,27.1038332,31.64974976,12.46199989,23.78414583,1145,19.18774891,50.00000001,324.1701889,94.27946663
Ayutthaya,ASIA,0.78,14.40384615,100.5448718,216.3846154,25.77923129,42.61538462,226.6153846,29.70893537,59.24933272,26.06083298,3.153846154,9.701570511,538.3846154,27.96553832,35.78015401,19.40607673,27.9574585,1022,16.37407728,16.84615385,158.0206017,85.36388749
Az Aubayr,ASIA,0.76,30.42105263,47.66337719,0,13.06507058,77.69736842,29,34.98445024,39.43063159,34.98445024,0,15.06299501,80.78947368,14.95460539,44.40989565,6.20914463,24.67470013,139.6315789,38.20075156,0,897.5960613,92.95118011
Az Zahran,ASIA,1.756969221,26.35643036,50.12984316,0,16.98096932,39.39065756,21.34718878,34.55323256,37.33378702,33.33134492,0,11.15232945,53.73784634,17.87147768,41.26969562,11.39995176,26.28792761,78.17972847,29.86974385,0,721.8067871,104.2775118
Az Zarqa,ASIA,1.385480101,32.11106235,36.0481181,0,9.383298245,139.9624915,48.95441303,25.63896812,40.65158199,25.63896812,0,11.59774177,139.9624915,9.383298245,32.69472501,4.168744805,18.07711602,220.0644405,28.52597992,0,676.6322248,106.5908217
Az Zawiyah,AFRICA,0.58,32.81609195,12.65804598,8.879310344,12.92057973,139.5172414,62.68965517,26.62809181,40.06277006,26.24717068,0,9.935559767,145.5172414,14.44112572,32.24720508,7.459120931,19.89742785,243.2413793,24.7880838,2,564.2474681,95.57346831
Azare,AFRICA,0.25,11.73,10.16666667,144.68,22.98169373,0,266.72,30.33029312,57.26228867,24.82095985,0,15.10864006,573.4,26.34047989,39.09964066,12.71448029,26.59759331,737.8,26.38516037,0,287.8531982,141.3283466
Azogues,SOUTH AMERICA,0.719799825,-2.697879007,-78.9062471,288.5476574,12.34332261,171.5093163,105.9183121,13.52242724,85.47052862,12.45198706,48.1692159,11.47046058,289.6729702,13.51448748,20.08790292,6.666796944,13.12561139,862.6054653,13.42110586,157.6732483,51.16001433,24.88521249
Azul,SOUTH AMERICA,0.4,-36.74791667,-59.91666667,302,8.19440043,125.05,121,21.17094536,47.13966913,8.19440043,40.025,12.98210039,325,20.64929504,29.82605047,2.286399925,14.52333133,947.15,27.53965011,125.05,527.9253876,35.56434774
Babahoyo,SOUTH AMERICA,0.3,-1.75,-79.55833333,1150.4,24.00035019,27.5,438.6,26.32336655,76.65577393,24.2227335,4.3,8.739216709,1206.5,26.10003338,30.83950043,19.4387991,25.19915047,1812.7,11.40070133,25.2,98.77291336,114.5768822
Babanusa,AFRICA,0.14,11.35714286,27.75,33.42857143,25.94940431,0,126.4285714,31.74433354,58.91034862,26.30928503,0,14.47553526,347,27.97402409,40.44471414,15.87257113,28.59625598,481,24.57214274,0,233.5059989,124.2567259
Babati,AFRICA,0.05,-4.166666667,35.68333333,315.9999998,17.74560013,12.4,147.6,21.34623299,71.22077026,18.28219948,1.199999998,10.89975014,380.8,21.29463387,27.49920044,12.19540024,20.07412453,766.7999999,15.3038002,7.199999998,157.7942474,88.94352722
Babruysk,EUROPE,1.21,53.18595041,29.16253444,237.5785124,-4.660920167,107,89,17.01943018,28.82240224,-3.555789289,31,9.247731012,237.5785124,17.01943018,23.58947904,-8.495330582,6.272333303,623.0578512,32.08481029,101,887.0026114,34.53228722
Bac Giang,ASIA,18.40673624,21.23385158,106.1530324,852.7328962,17.21596945,69.94698555,311.0896075,28.71770721,34.16327878,17.46540053,14.26769659,6.562743975,853.6744907,28.64951056,32.32120289,13.11902583,23.49200558,1596.977726,19.20217732,69.60861813,476.8766782,84.95847745
