City,Region,tif_count,Latitude,Longitude,BIO1 Annual Mean Temp,BIO2 Mean Diurnal Range,BIO3 Isothermality,BIO4 Temp Seasonality,BIO5 Max Temp Warmest Month,BIO6 Min Temp Coldest Month,BIO7 Temperature Range,BIO8 Mean Temp Wettest Quarter,BIO9 Mean Temp Driest Quarter,BIO10 Mean Temp Warmest Quarter,BIO11 Mean Temp Coldest Quarter,BIO12 Annual Precipitation,BIO13 Precipitation Wettest Month,BIO14 Precipitation Driest Month,BIO15 Precipitation Seasonality,BIO16 Precipitation Wettest Quarter,BIO17 Precipitation Driest Quarter,BIO18 Precipitation Warmest Quarter,BIO19 Precipitation Coldest Quarter
Aalborg,EUROPE,1.61,57.08074534,9.891304348,7.743962172,7.203979862,31.01764719,606.4562367,20.73582902,-2.489854819,23.2256835,12.03831305,2.794768824,15.4444304,0.731802886,616.1118012,70.0310559,31.17391304,24.14464978,198.5279503,104.757764,171.3664596,131.9751553
Aarhus,EUROPE,2.73,56.20909646,10.13919414,7.887753511,7.002005027,28.75652442,621.8736282,20.2846769,-4.0689889,24.3536659,9.04252353,2.723469057,15.71001334,0.685327669,633.959707,66.73260073,33.94871795,22.26084553,197.4871795,109.3882784,177.7619048,125.3846154
Aba,AFRICA,3.27,5.127930683,7.295616718,26.42721442,8.343761785,74.63837339,93.07581969,32.64484176,21.46637909,11.17846267,25.22179559,26.89638411,27.63317806,25.22179559,2428.342508,387.0733945,25.55657492,64.19803992,1059.006116,118.5504587,371.3302752,1059.006116
Abadan,ASIA,0.6,30.37916667,48.2375,25.32820956,14.74665793,38.8637181,902.7508982,45.15214952,7.208816735,37.94333248,15.56098657,35.82639656,35.82639656,13.73548334,164.9666667,37.33333333,0,98.21012332,97.06666666,0,0,96.06666666
Abaetetuba,SOUTH AMERICA,0.12,-1.666666667,-48.91666667,26.43541718,7.947833538,84.02404022,40.37599182,31.33899879,21.87999916,9.458999634,25.95966721,26.92066574,26.92066574,25.92950058,2644,435,59,67.37737274,1271,202,202,1217
Abai,SOUTH AMERICA,0.04,-26,-56,21.88158417,11.48099995,54.12757492,366.6720886,32.22100067,11.01000023,21.21100044,24.13750076,17.31999969,26.16133308,17.31999969,1568,188,77,25.55195427,468,273,378,273
Abakan,ASIA,0.93,53.75,91.39605735,1.650247869,12.20769824,24.85779953,1358.529381,26.27034415,-22.84139732,49.11174159,17.91228735,-13.20779715,17.91228735,-15.72356082,338.0860215,67.06451613,5.623655914,79.40352352,186.8817204,22.62365591,186.8817204,26.06451613
Abancay,SOUTH AMERICA,0.14,-13.58333333,-72.91666667,14.82183361,15.02666664,81.04560852,73.40306854,23.99799919,5.456999779,18.54100037,14.89566708,13.95816612,15.72683334,13.89750004,1167,220,15,80.60087585,631,57,327,57
Abau,MELANESIA,0.01,-10,148.5,25.46112442,7.790249825,66.52646637,114.0264587,31.61600113,19.90600014,11.71000099,25.9640007,25.86916733,26.69016647,23.86583328,2072,232,124,18.15141678,650,414,562,474
Abaza,ASIA,0.19,52.66666667,90.05263158,0.358704005,11.57146951,25.49136593,1246.786994,23.2517899,-22.14278904,45.39457823,15.29114924,-13.01374551,15.29114924,-15.42823646,523.5263158,86.73684211,12,56.36735856,232.8421053,45.36842105,232.8421053,61.73684211
Abbottabad,ASIA,7.595490645,34.10591133,73.04523012,18.88536901,12.7765529,38.25294867,729.5774041,35.55046879,2.152971224,33.39749765,25.72836027,14.86846971,27.12753289,9.331190112,1160.59667,244.0198068,21.12193594,75.42643946,577.4561638,95.30012147,557.4816411,207.9625583
Abeche,AFRICA,0.14,13.88095238,20.78571429,28.75940541,15.25266702,60.18543189,271.5838296,40.77478681,15.43207128,25.34271567,28.11630998,27.13766657,32.39782143,25.53571415,374.0714286,157.7857143,0,159.4453539,321,0,45.64285714,0
Abengourou,AFRICA,0.48,6.763888889,-3.536458333,26.3741022,8.366084814,70.08932654,116.314414,32.9483134,21.01197946,11.93633393,26.88004565,26.91001745,27.79720155,24.81264941,1234.354167,206.5,8.520833333,60.48303564,512.6458333,76.375,313.4166667,314.7291667
Abeokuta,AFRICA,2.88,7.164930556,3.293113426,26.74567033,8.694709543,70.51105682,133.055632,33.90855571,21.57656593,12.33198977,26.02989766,27.59661978,28.38225809,25.0200429,1249.086806,204.8784722,12.06597222,64.20608817,539.9618056,54.53125,253.3680556,416.4652778
Aberdeen1,NORTH AMERICA,0.39,45.5,-98.51068376,6.478341885,13.07573047,27.53029931,1242.538834,29.72223018,-17.77374356,47.4959754,18.75215364,-9.553713799,21.11393635,-9.553713799,510.6153846,86.87179487,10,59.63583022,226.7435897,34,218.6153846,34
Aberdeen2,NORTH AMERICA,0.52,47,-123.8733974,10.2494852,8.733013923,44.44760572,425.9462327,21.57522576,1.931416931,19.6438084,5.701482736,15.38839547,15.68592306,5.313174394,2292.961538,364.8076923,41.96153846,62.86142804,1041.057692,161.4038462,183.4038462,989.5384615
Aberdeen3,EUROPE,1.63,57.19836401,-2.181492843,7.985531169,7.362324908,38.49716243,441.7983466,18.68969848,-0.437536896,19.12723572,5.527853928,9.104370142,13.63031991,2.820977391,789.0429448,82.36196319,53.0797546,17.09769653,238.3312883,162.2208589,181.4662577,206.5889571
Abha,ASIA,0.44,18.25,42.47159091,20.2523225,13.90011159,55.49580002,420.4309741,32.30993132,7.264022663,25.04590897,20.53141611,19.22838939,25.22295007,15.00846603,251.5681819,49.68181818,6,74.94346012,132.0909091,24.68181818,65.77272729,28.68181818
Abidjan,AFRICA,5.57,5.417863555,-4.061340515,26.45424866,6.490712137,64.88394019,121.5690361,31.56768316,21.56769266,9.999990501,27.0719876,27.08151319,27.69425858,24.69103595,1697.177738,438.7827648,21.53141831,80.24386994,853.8456015,144.2369838,325.5655296,269.567325
Abilene,NORTH AMERICA,1.38,32.48007246,-99.80495169,18.07510644,13.76938871,38.71522492,805.1644738,35.16770343,-0.398210151,35.5659131,23.75645561,7.863500115,27.7314614,7.863500115,616.0217391,84.63768116,24.05072464,40.72085057,216.557971,84.10869565,186.173913,84.10869565
Abohar,ASIA,12.50599139,30.37000886,74.29493601,24.4462549,14.12859807,39.80707259,766.9357478,41.05024728,5.557904383,35.49234278,30.85395348,19.38150475,32.74204652,14.17672211,356.9589968,100.1087293,2.72813031,120.4883549,270.1885504,17.36747306,127.5102954,26.3372111
Abomey,AFRICA,14.21624684,6.908970431,1.854721596,27.0714983,8.931463835,70.58920859,130.1690514,34.28943494,21.63588495,12.65354999,27.21527596,27.55881579,28.63146398,25.38554972,1006.298869,162.9243795,5.162259746,63.65049715,431.1796863,45.93425473,234.5224856,300.7296334
Abong Mbang,AFRICA,0.02,4,13.16666667,23.5896244,9.857250213,72.30963898,75.6412735,30.56399918,16.93199921,13.63199997,23.13666725,23.4841671,24.7001667,22.93183327,1593,293,22,62.78927231,656,90,306,468
Abra Pampa,SOUTH AMERICA,0.06,-22.66666667,-65.75,10.82904148,17.02775002,62.22682953,356.8828125,22.12199974,-5.242000103,27.36400032,14.25616646,6.091666222,14.32299995,5.917833328,221,58,0,114.6472778,156,1,125,2
Abu Dhabi,ASIA,1.23,24.48780488,54.36924119,27.46945401,10.45514646,40.29534475,592.3348835,40.22324052,14.29898506,25.92425582,20.49032514,31.31245346,34.18799982,19.88043756,62.1300813,22.05691057,0,115.4865922,45.72357724,1,2,35.68292683
Abu Kamal,ASIA,0.93,34.53942652,40.87365591,20.73781555,13.29599883,35.57846582,917.8523415,40.076354,2.706774186,37.36957927,10.93612731,30.98845615,31.47795999,9.09939972,134.5913979,26,0,80.42588322,64.86021505,0,1,59.98924731
Abuja,AFRICA,2.06,9.105582524,7.439724919,26.1571326,10.64816666,61.95238699,159.4342448,35.03263164,17.84487341,17.18775823,24.62261416,25.7026279,28.45091938,24.62261416,1372.883495,283.5291262,0.995145631,94.60978136,786.6990291,9.558252427,112.3009709,786.6990291
Acapulco,NORTH AMERICA,1.6,16.9265625,-99.87708333,26.90143578,9.166298121,76.60837541,80.1679544,32.64307649,20.65571318,11.98736331,27.42687122,26.42962644,27.78485543,25.79644492,1303.125,301.19375,1.95,115.6448562,822.25,9.80625,561.75625,23.56875
Acarau,SOUTH AMERICA,0.04,-2.833333333,-40.16666667,27.64755821,10.52861977,81.09020233,62.34942627,34.37171555,21.38787842,12.98383713,27.03249168,27.92457962,28.39427567,26.99090958,1283,339,2,116.3760223,859,9,36,286
Acarigua,SOUTH AMERICA,0.82,9.607723577,-69.24898374,26.77347807,10.20895222,78.36425893,62.57842003,33.72265751,20.69515889,13.02749862,25.99823417,27.2020242,27.59688426,25.99823417,1216.756098,213.8536585,14.56097561,68.80440223,561.8658536,50.69512196,104.8536585,561.8658536
Acatlan,NORTH AMERICA,0.07,18.25,-98.08333333,24.00933266,16.75566673,72.21958923,174.9554291,35.52999878,12.32899952,23.20100021,24.34933281,21.7998333,26.19983292,21.7998333,569,121,4,99.90883636,317,14,176,14
Accra,AFRICA,7.47,5.680834449,-0.216421241,27.13476858,8.00445543,72.0166131,118.5456391,33.18622433,22.07192583,11.1142985,27.50420398,27.9028166,28.46408268,25.47225627,934.8313253,190.7670683,14.18607764,67.70726213,453.373494,73.7188755,213.9678715,173.291834
Achinsk,ASIA,1.02,56.29575163,90.43954248,1.119743842,8.881157482,20.75773073,1241.834169,23.83500013,-18.94800044,42.78300005,16.50486955,-12.10251963,16.50486955,-14.10465853,437.8627451,74.03921569,11,55.93626262,200.0490196,40.67647059,200.0490196,52.93137255
Acu,SOUTH AMERICA,0.07,-5.523809524,-36.92857143,27.58967836,9.336380959,78.2394213,93.80581229,33.7415717,21.80857032,11.93300138,28.12185723,27.66085706,28.54797636,26.23338018,694.7142857,178.8571429,2.285714287,105.7368328,439.8571429,11.14285714,173.7142857,75.42857142
Ad Dakhla,AFRICA,0.17,23.75,-16,20.41145897,6.985416889,57.85024261,170.3630371,26.32999992,14.25500011,12.07499981,22.09291649,19.96291733,22.63916779,18.4370842,50,16,0,109.1240158,23,2,22,20
Ad Damman,ASIA,4.04,26.43028053,50.07219472,26.27089242,11.21380156,37.37144585,724.0283656,41.3424967,11.34314836,29.99934832,17.84569666,33.34005815,34.57072899,16.92876541,78.29455445,20.81435644,0,104.0239083,53.70544554,0,0,39.55445544
Ad Diwaniyah,ASIA,0.57,32.02339181,44.88450292,23.77161849,14.7984445,38.12767424,916.6595984,43.69752663,4.884631651,38.81289532,12.05205258,34.43328951,34.43328951,12.05205258,109.368421,21.7368421,0,84.92183163,57.98245614,0,0,57.98245614
Ad Nabk,ASIA,0.21,34.08333333,36.67460317,13.20703025,13.98018637,42.35128257,736.5810169,31.46614293,-1.543904798,33.01004791,4.16228585,21.91831026,21.91831026,4.16228585,200.5714286,38.61904762,0,77.35641262,100.952381,0,0,100.952381
Adana,ASIA,2.45,37.0414966,35.28469388,18.74636022,11.16834752,38.77365066,695.1595329,33.30312305,4.49833475,28.80478804,10.65344089,27.09861219,27.09861219,10.18972119,703.8163265,130.6653061,7.587755101,68.5189829,333.2040816,32.69795918,32.69795918,333.2040816
Adapazari,ASIA,1.67,40.78792415,30.35429142,14.21529519,9.373937138,36.59427515,631.968534,28.1476944,2.532053873,25.61564075,8.125246636,21.33745802,22.03674847,6.663253447,783.3413173,106.8443114,43.2754491,30.25118827,275.2754491,136.742515,139.7724551,263.0658683
Addis Ababa,AFRICA,13.99,8.750357398,38.98820586,17.36069669,14.20510716,76.85602325,105.3174066,26.31159474,7.839750612,18.4718443,16.9179132,16.23510129,18.76856855,16.2274729,935.6325947,219.2380272,5.293781272,92.10869082,550.0192995,30.80057184,206.6383131,56.29807008
Adelaide,AUSTRALIA,9.46,-34.87041931,138.5543517,16.18214353,10.12553762,47.12337127,408.1460522,28.25140178,6.778137796,21.47326395,11.18542862,21.09972431,21.20414135,11.18542862,578.4217758,81.66279068,17.98731501,45.18061012,228.5930232,68.09830866,69.36575052,228.5930232
Aden,ASIA,0.42,12.83928571,44.98015873,28.59758304,7.35066583,48.05303828,274.7402155,36.35498301,21.06498364,15.28999937,25.57804553,31.5210025,31.82132117,25.27289173,52.92857143,7.928571429,1.69047619,38.22364644,17.85714286,8.380952381,9.380952381,13.85714286
Adi Ugri,AFRICA,3.029569378,14.91167993,38.77448093,20.21560243,14.57555288,71.82493489,166.4093167,30.65926429,10.36751052,20.29175362,20.70142677,18.40252251,22.48517872,18.2195049,627.8926056,196.2779778,2.10906851,127.1535698,440.6797909,13.77654063,138.0335765,23.58825294
Adigrat,AFRICA,0.4,14.3,39.43333333,15.35040855,14.90761681,72.10943909,164.8786102,25.18019981,4.506600094,20.67359962,16.37653351,13.83706665,17.38123283,13.22866688,570.6,167,4.8,112.0039566,357,25,139.2,28.6
Adiyaman,ASIA,1.35,37.79814815,38.22962963,16.67583092,11.53934027,31.35816762,936.8426744,37.08640659,0.293681494,36.7927254,5.340960524,28.13878437,28.21744566,5.340960524,610.962963,118.5555556,1,78.23977712,301.6222222,8,12.64444444,301.6222222
Ado Ekiti,AFRICA,18.04388462,7.749430408,5.078419984,24.67585342,9.289629896,67.61896829,126.0613286,32.08149206,18.33735067,13.74414139,23.27149376,24.98254775,26.38497332,23.15209632,1355.085375,243.5005358,7.933509332,69.03828923,562.4373394,47.8447247,231.726221,559.7507572
Adrar,AFRICA,0.36,27.90972222,-0.333333333,25.11704763,15.7757357,39.27748744,894.7846883,45.41366514,5.24966685,40.16399701,25.54449972,33.41947142,36.13111083,14.10479156,12.91666667,3,0,48.18495846,7,0,1,3
Afyon,ASIA,0.84,38.80257937,30.52380952,10.83627001,11.85173213,36.10285446,788.0375824,29.10491671,-3.721749998,32.8266671,1.103454401,20.06269671,20.45267834,1.103454401,495.5119048,67.25,12,41.58320795,172.4047619,45.79761905,68.30952381,172.4047619
Agadez,AFRICA,0.39,17.01709402,7.94017094,28.44383611,14.59677148,49.91383078,503.9012647,41.63612757,12.39243534,29.24369225,31.50475659,25.31777323,33.53484198,21.37999544,114.3589744,48.51282051,0,156.3003501,97.92307692,0,53.02564103,0
Agadir,AFRICA,1.65,30.43888889,-9.589393939,18.81865572,9.784630289,50.46684577,322.1594392,27.59936516,8.218123032,19.38124229,14.66671091,22.30406741,22.81988663,14.66671091,208.4909091,49.41818182,0.042424243,89.80658662,119.4666667,3.151515151,4.139393939,119.4666667
Agana,MICRONESIA,0.7,13.52738095,144.7488095,26.79085129,5.75545952,76.20928628,57.26162409,30.50123005,22.94896428,7.552265767,27.0008106,26.35682237,27.37515346,25.9675793,2217.171429,350.5285714,74.77142857,52.97929219,969.5,246.6428571,527.3571429,278.5714286
Agartala,ASIA,50.02963516,24.08841631,91.14962297,25.07351839,9.968513893,45.10134788,383.6449278,32.79437217,10.70041436,22.09395777,28.11484227,19.25985385,28.15019272,19.25985385,2220.815315,458.0893785,5.224025771,86.49243405,1176.486484,32.86531102,1159.063702,32.86531102
Agboville,AFRICA,0.34,5.985294118,-4.25,26.90648808,7.65924033,69.94570833,112.5775452,32.70158835,21.75200036,10.94958799,27.46122607,27.4177356,28.19172534,25.34503006,1335.235294,247.4705882,12.17647059,60.84212112,582.8823529,94.05882353,313.1764706,286.8235294
Agen,EUROPE,0.8,44.24375,0.592708333,12.65546346,10.0919582,40.0311306,567.3218811,26.68441298,1.473887481,25.21052511,9.083562218,19.74303775,19.74303775,5.978137702,924.1125,90.8,56.7625,14.10045115,259.325,186.45,186.45,250.35
Agordat,AFRICA,0.1,15.58333333,37.83333333,28.88633347,14.72149944,66.60106659,215.2813873,40.18000031,18.07600021,22.10400009,28.4798336,26.33566666,31.63216782,26.33566666,335,114,0,142.0162811,266,2,52,2
Agra,ASIA,42.65955724,27.21342208,78.10458683,25.42856466,13.804144,39.49143198,701.1715974,41.9220273,6.967131454,34.95489593,29.61084316,19.07219228,33.07955336,15.80152146,783.7752358,261.2381433,3.283029476,137.0824883,624.3466686,26.58145012,284.1420834,33.59040379
Agri,ASIA,0.38,39.75,42.99561404,6.375817901,12.88409223,29.22644916,1099.515323,29.38321104,-14.70031588,44.08352601,11.20648239,19.00578931,19.00578931,-7.806227935,506.6842105,71.94736842,19,36.94372478,181.9473684,63.94736842,63.94736842,119.8421053
Agrinio,EUROPE,0.46,38.66666667,21.35688406,16.09441088,12.05092754,41.31613508,639.4575089,32.39962876,3.235543516,29.1640856,12.08189156,24.08934776,24.08934776,8.647789686,838.1956522,149.7608696,14,65.46668791,374.0217391,47.95652174,47.95652174,332.9565217
Agua Prieta,NORTH AMERICA,0.55,31.37121212,-109.5833333,17.01176955,18.44487156,50.33564342,701.3049205,35.49354484,-1.149454518,36.64300086,24.89224243,20.6377267,25.63774178,8.543075562,360.2727273,89.09090909,6.545454546,86.60914751,206.6363636,27.09090909,181.1818182,67
Aguascalientes,NORTH AMERICA,1.81,21.94337017,-102.3342541,17.34884928,17.05051875,63.28362544,304.4901335,30.2212486,3.278314932,26.94293392,19.55886164,16.318415,20.6849383,13.26041985,481.7734807,121.6961326,1.464088398,105.542679,309.9558011,14.08287293,211.3425414,32.44751381
Ahar,ASIA,0.2,38.5,47.0125,10.54320641,11.72637949,32.02818317,905.956015,29.79355049,-6.819300056,36.61284981,9.639166403,21.12029152,21.44905882,-0.837841639,319.7,55,7,50.74796619,132.85,30,47,64
Ahmadabad,ASIA,82.59250416,22.99959385,72.66739819,27.00741288,13.68810649,45.88935771,450.5907947,41.00106747,11.16771997,29.83334749,28.55144791,25.9387894,32.34320065,20.82508071,748.9799381,278.5057689,0.709023181,153.2154514,631.541126,3.816538991,90.08823515,5.253776057
Ahmednagar,ASIA,1.5,19.14277778,74.71166667,25.24822568,13.7583074,51.51206479,330.517745,38.88353951,12.17473332,26.70880554,24.9989716,23.67666917,29.61921471,21.30651882,508.5666667,138.8,1,101.7795261,290.38,5,112.0466667,36.55333333
Ahwaz,ASIA,2.67,31.35205993,48.62765293,25.25352658,14.66091378,37.75283961,935.9029319,45.7136928,6.881471945,38.83222026,13.82225842,36.29356006,36.29356006,13.38997877,255.2883895,62.46067416,0,106.3440307,156.1348315,0,0,156.1348315
Aigua,SOUTH AMERICA,0.04,-34.16666667,-54.83333333,16.05904198,9.841583252,45.66860199,433.4312744,27.51099968,5.960999966,21.54999924,13.74699974,20.07816696,21.3484993,10.78416634,1245,116,87,7.294603348,334,281,291,327
Aiken,NORTH AMERICA,0.91,33.57783883,-81.76373626,17.2326967,14.16923519,42.44398691,735.9405994,33.68713215,0.303648362,33.38348296,26.12951178,17.76259577,26.12951178,7.945472434,1204.593407,121.8461538,70.48351648,19.0589114,361.8571429,232.8021978,361.8571429,314.2307692
Aiquile,SOUTH AMERICA,0.04,-18.16666667,-65.25,17.71674919,15.57050037,66.49513245,232.1339264,28.28899956,4.873000145,23.41600037,19.53033257,14.48050022,20.0126667,14.48050022,564,128,1,99.96842957,342,7,181,7
Aix-en-Provence,EUROPE,0.95,43.57631579,5.385087719,13.99137528,10.3339578,37.39128567,626.8085012,29.49173708,1.855347343,27.63638934,14.55751944,22.0258917,22.0258917,6.753773685,663.7578947,95.6,14.89473684,35.59086565,231.1263158,93.22105263,93.22105263,173.7789474
Aizawl,ASIA,0.5,23.745,92.66666667,21.3857515,9.46551796,49.42504982,304.3350147,28.94607933,9.794060211,19.15201912,23.84749352,16.79707733,23.84749352,16.79707733,2222.66,429.84,9.82,80.07202622,1095.42,49.7,1095.42,49.7
Ajaccio,EUROPE,0.62,41.97849462,8.711021505,14.78129396,9.315910785,38.95905968,539.4588771,28.01283335,4.115254129,23.89757962,12.64093268,21.52459612,21.70466051,8.768621829,662.9032258,98.85483871,9.741935484,49.2269324,266.9516129,54.33870968,83.74193548,201
Ajdabiya,AFRICA,0.22,30.81439394,20.16666667,20.81583743,11.59432559,46.45146075,548.1506653,33.15177328,8.191636692,24.96013607,13.79530334,26.86608436,26.86608436,13.79530334,131.0909091,38.77272727,0,117.7677172,96.09090909,0.772727272,0.772727272,96.09090909
Ajmer,ASIA,2.07,26.50201288,74.62238325,25.10669142,13.52343618,42.15449201,601.4505471,39.56299497,7.492555517,32.07043979,28.38429569,23.76824874,31.65624695,16.79968747,489.2753623,180.8357488,1.77294686,153.8362592,412.4299517,7.990338164,230.1352657,9.579710145
Aketi,AFRICA,0.17,2.759803922,23.75,25.166054,10.50533328,80.92940566,36.88390844,31.93770532,18.95676467,12.98094065,24.85450947,25.12344136,25.66327443,24.79870516,1659.647059,221.1176471,42.88235294,40.25121173,576.2352941,163.6470588,478.5294118,508.2352941
Akhtubinsk,EUROPE,0.32,48.32291667,46.12760417,8.489239513,9.733354001,23.7445429,1181.949066,30.26140618,-10.72359377,40.98499882,20.88930726,0.911260448,22.7409423,-6.241807192,294.5625,35,18.875,20.55971533,89.03125,58.34375,83.78125,72.90625
Akita,ASIA,1.51,39.77152318,140.0524283,11.31528144,7.541942025,23.96921949,889.9773297,28.39842719,-3.061791766,31.46021862,22.40180065,8.747906224,22.40180065,0.813881527,1626.271523,172.9006623,96.47682119,21.30757549,496.1523179,297.1655629,496.1523179,414.1390729
Akola,ASIA,2.15,20.74418605,76.9496124,27.58288277,13.16380817,46.32524803,417.0604461,42.56475253,14.14954418,28.41520868,27.06954913,23.43302706,33.39393234,22.69167056,710.4837209,196.5813953,3,122.3146411,500.7860465,13.90697674,137.655814,18.93953488
Akron,NORTH AMERICA,8.487085322,41.14380069,-81.53553276,9.7571241,10.7737358,29.71436959,942.8891631,28.10421091,-8.153041941,36.25725256,18.95141514,-1.996814846,21.04658547,-2.263378284,969.0790026,99.87188487,55.50348983,17.65592253,286.2337128,190.8842177,282.9398691,191.1128046
Aksu,ASIA,0.8,41.21041667,80.225,10.7957642,14.48658425,30.90717661,1171.4599,32.40751176,-14.46283755,46.87034822,23.50153103,-3.821156204,23.50153103,-4.919362503,73.225,16.3625,1,73.38938475,40.0875,4.524999999,40.0875,5.524999999
Aksum,AFRICA,0.27,14.15123457,38.7037037,18.43720146,15.11744174,73.21433258,155.4207769,28.95855607,8.309778037,20.6487775,18.24403056,17.11333939,20.58691993,16.89702486,656.4444445,215.2592593,2,134.077062,480.3333333,6.814814815,125.4074074,17.18518519
Akureyi,NORTH AMERICA,0.29,65.74425287,-18.16091954,3.153362463,6.312146417,31.98509407,507.9879161,14.15837242,-5.57581012,19.73418249,2.896895186,5.34322626,10.01024933,-2.19345046,564.1034483,73.65517242,24.62068966,29.56749574,194.4827586,87.82758622,118.6551724,150.7241379
Al Ahmadi,ASIA,0.18,29.14351852,48.00925926,25.83059756,15.52945466,39.17807452,923.4349569,46.29413944,6.661649836,39.63249016,15.81980928,36.76747555,36.76747555,14.07457129,101.6111111,21.66666667,0,91.61922158,59.88888889,0,0,57.16666667
Al Amarah,ASIA,0.81,31.8909465,47.10802469,24.26168903,14.89775726,39.11090126,904.4093229,44.14420912,6.053321002,38.09088902,12.87547528,34.91967665,34.91967665,12.87547528,197.7777778,44.67901234,0,99.25148943,119.345679,0,0,119.345679
Al Ayn,ASIA,1.94,24.23324742,55.68685567,28.31522166,13.10365629,43.48324746,657.3472765,42.849372,12.71690216,30.13246958,24.35013402,35.7727423,35.7727423,19.75653451,125.4020619,38.27319588,1,105.2797616,82.43298969,4.159793814,4.159793814,60.92268041
Al Bayda,AFRICA,0.01,32.83333333,21.58333333,17.93958282,9.525333405,43.96037292,487.6165162,29.08099937,7.413000103,21.66799927,11.92683315,23.60633278,23.60633278,11.92683315,419,97.00000001,0,102.5634689,270,1,1,270
Al Fallujah,ASIA,0.33,33.40151515,43.75,22.84845508,15.07604625,37.9065746,940.2461326,43.65509276,3.883545377,39.77154888,11.36293932,34.05457445,34.05457445,11.05681801,131.4545455,22.81818182,0,85.49228252,66.63636363,0,0,66.63636363
Al Fujayrah,ASIA,0.37,25.14189189,56.31531532,28.18315872,10.43336041,42.39864298,525.7655392,39.96162085,15.35510393,24.60651692,21.90049878,33.36738638,33.87185473,21.32942586,122.5405406,36.13513514,0.216216217,110.853894,83.8918919,2.432432434,3.081081085,74.54054054
Al Hasakah,ASIA,0.48,36.54861111,40.70659722,18.29606088,14.40073266,36.76353145,945.1645317,39.76689521,0.596020819,39.1708738,8.098353982,29.82274306,29.82274306,6.5649514,310.1666667,52.35416667,0,78.94469802,148.8125,2.770833334,2.770833334,143.0625
Al Hillah,ASIA,1.51,32.5281457,44.36644592,23.62408172,14.07333411,35.74335912,953.0733283,43.82792065,4.455390706,39.3725303,11.61082566,34.7995997,34.7995997,11.61082566,107.1390728,23.73509934,0,91.65430607,61.45695364,0,0,61.45695364
Al Hudaydah,ASIA,1.04,14.84054487,42.94871795,29.76850557,9.105913602,53.87741815,305.6408853,37.95351399,21.06133518,16.89217881,31.90569526,30.16947244,33.20053108,25.89547297,58.09615385,12.33653846,1,56.59103639,27.70192308,7.73076923,16.93269231,12.05769231
Al Hufuf,ASIA,1.21,25.43732782,49.53787879,26.57463137,11.70615095,38.76864715,709.611601,41.70313112,11.50971071,30.19341997,20.61805796,34.68713678,34.68713678,17.4179726,78.6446281,24.66115703,0,103.977792,50.73553719,0,0,32.41322314
Al Jaghbub,AFRICA,0.01,29.75,24.5,21.85391617,13.80049992,45.68945313,628.9086914,36.93099976,6.725999832,30.20499992,15.19733334,25.14333344,29.23283386,13.8380003,14,5,0,75.79593658,10,0,0,10
Al Jahra,ASIA,0.53,29.37106918,47.64150943,25.84568819,15.61984881,39.5214928,923.6806157,46.20639182,6.6839623,39.52242941,15.83721391,36.70888728,36.70888728,14.18644626,109,22.54716981,0,89.2638092,61.54716981,0,0,57.67924528
Al Jawf,AFRICA,0.19,24.25,23.25,23.82170868,14.34908295,44.85630417,689.069397,38.93799973,6.948999882,31.98900032,16.46616745,28.72916603,31.33183289,14.6704998,2,1,0,33.36423874,2,0,0,1
Al Jubayl,ASIA,0.47,27.03014184,49.59929078,25.9604771,12.03815541,38.00539455,751.3371335,41.98770263,10.31831502,31.66938761,17.37168418,33.84972828,34.66863389,16.24211299,90.63829787,19.19148936,0,96.60669302,56.74468085,0,0,47.91489362
Al Karak,ASIA,0.88,31.18371212,35.67613636,16.33364664,12.13174059,42.03029121,654.4605588,31.05118205,2.19227276,28.85890961,7.85981434,23.56210592,23.56210592,7.85981434,350.4545455,83.31818182,0,112.0673991,227.3181818,0,0,227.3181818
Al Khalil,ASIA,1.45,31.57011494,35.07241379,16.00479398,10.4188903,41.20719005,590.7754289,29.01485493,3.734744911,25.2801101,8.391896577,22.41093123,22.52010551,8.391896577,407.6482758,101.1310345,0,110.5804878,257.9448276,0,0,257.9448276
Al Kharj,ASIA,0.66,24.18560606,47.28282828,26.71275939,11.88913023,42.18794198,622.8591346,40.90933355,12.72834849,28.18098476,22.59568659,33.86287053,33.86287053,18.7437502,99.5,32,0,111.8473391,64.75757576,1,1,27.21212121
Al Khums,AFRICA,0.15,32.66666667,14.23888889,20.44649022,9.073231698,40.39077377,518.5853963,31.94251061,9.482171058,22.46033859,15.89120833,26.18486328,26.79647675,14.19847031,282.1333334,57.26666667,0,89.06158905,154.9333333,1.133333335,10.26666667,145.0666667
Al Kut,ASIA,0.44,32.56060606,45.77272727,24.17927473,14.82940526,37.57197467,934.222967,44.5459997,5.076681766,39.46931874,12.46043158,35.22915909,35.22915909,12.46043158,146.1818182,31.95454545,0,97.15142718,87.90909091,0,0,87.90909091
Al Ladhiqiyah,ASIA,1.92,35.60503472,35.77951389,19.25234646,8.573759767,36.75883037,586.6527338,30.82249844,7.502518629,23.31997965,11.85591613,25.74591669,26.2964348,11.85591613,832.734375,176.796875,2.244791666,87.7652959,454.234375,11.02083333,18.328125,454.234375
Al Marj,AFRICA,0.21,32.51587302,20.78968254,17.60291808,10.93401986,46.39181573,508.2669416,29.98376256,6.415523733,23.5682384,11.30120659,23.40380977,23.45282546,11.30120659,410.0952381,100.8095238,0,108.3157465,274.3333333,2.095238095,4.523809524,274.3333333
Al Mubarraz,ASIA,0.624640939,25.47136476,49.52730114,26.54916355,11.71382032,38.77476483,710.1026707,41.68378757,11.47535079,30.2084364,19.52099805,34.66777885,34.66777885,17.38435878,78.53573328,24.34362291,0,103.8670672,50.53573328,0,0,32.84848745
Al Mukalla,ASIA,0.32,14.5859375,49.08333333,27.10977709,7.293699846,46.04700589,255.8630156,34.10527122,18.26564711,15.83962411,25.77717656,27.33871913,29.89071518,23.82175004,28.25,6.0625,0,61.91398394,14.125,3.03125,8.0625,5.0625
Al Musayyib,ASIA,0.44,32.83333333,44.25,23.26241684,14.10899925,36.01531601,947.187439,43.42499924,4.25,39.17499924,13.08916664,34.39550018,34.39550018,11.34783363,124,25,0,91.56807709,69,0,0,69
Al Qamishli,ASIA,0.30874184,37.08333333,41.1949475,19.15095659,13.13736095,33.69238386,963.4188874,40.99528165,2.003357556,38.99192472,7.54008118,30.70899641,31.00858395,7.54008118,428.32126,73,0,82.56937497,209.66063,1,3,209.66063
Al Qunaytirah,ASIA,0.09,33.16666667,35.75925926,15.80037509,11.80834198,40.27399656,684.1572401,31.37699996,2.057888905,29.31911066,7.13872242,23.51533339,23.51533339,7.13872242,727.5555556,174.6666667,0,108.0381775,469.4444445,1,1,469.4444445
Al Quwayiyah,ASIA,0.17,24.09313725,45.24509804,26.12402882,14.02512752,40.90563628,771.0322625,42.82241148,8.538823969,34.28358594,26.29783316,34.86896919,34.86896919,16.18579427,135.6470588,43.05882353,0,107.5075589,86,2.764705883,2.764705883,33.88235294
Al Wajh,ASIA,0.1,26.28333333,36.41666667,24.93545914,11.20490513,50.7869667,415.0485779,35.18506317,13.1278616,22.05720062,23.65080147,29.38567581,29.49355926,19.48513031,23.4,7,0,80.3383545,15,0,0,11
Al-Qatif,ASIA,0.741222364,26.5652076,49.96402339,26.20397171,11.4812415,37.77908509,727.6783063,41.52188096,11.13931406,30.38256732,17.7698486,33.31225744,34.5599812,16.79807826,78.80782457,20,0,104.1677924,54.11977193,0,0,40.11977193
Alagoinhas,SOUTH AMERICA,0.22,-12.08333333,-38.48484848,23.62479574,8.485045433,66.36553261,154.6142106,30.02972794,17.24418224,12.7855457,23.35022632,23.49304529,25.1834996,21.55571157,1244.363636,177.1818182,60.72727272,36.35884059,473.3636363,208,260.7272727,364.2727273
Alajuela,SOUTH AMERICA,1.764001031,10.03112947,-84.25932221,21.81193574,10.28095511,80.92507377,62.03895754,28.73791356,16.0330823,12.70483125,21.45458502,21.93013315,22.71273063,21.17748455,2486.733192,398.5884922,20.67936288,71.49521366,1127.98689,83.98488464,445.6054484,595.4894561
Alamogordo,NORTH AMERICA,0.35,32.94285714,-106,15.90276764,16.56679846,45.25957249,783.1858137,34.32268655,-2.281742879,36.60442995,24.38032804,11.7014283,25.53950413,6.343876335,265.2857143,51.25714285,7,64.8031104,134.5142857,26.94285714,118.5142857,43.25714285
Alapayevsk,ASIA,0.53,57.90408805,61.65408805,2.05001962,9.203344687,20.52056662,1231.192132,24.63135892,-20.21862242,44.84998134,17.52156315,-10.93766349,17.52156315,-12.97487117,504.3018868,87.30188679,15,56.25256801,230.1509434,56,230.1509434,65
Alatyr,EUROPE,0.33,54.89393939,46.54040404,4.219601096,8.498535012,22.17751156,1133.751076,24.25703014,-14.0634546,38.32048462,17.82024204,-8.336934292,17.82024204,-9.779242516,497.8181818,65.78787879,21,36.70269313,186.9393939,70.15151515,186.9393939,80.30303031
Alayat Samail,ASIA,0.1,23.33333333,57.91666667,26.29104233,11.10474968,43.17722321,530.6463013,38.86100006,13.1420002,25.71899986,23.29833412,26.50716591,32.32699966,19.35616684,187,32,4,58.26388168,81,16,41,58
Albacete,EUROPE,0.56,39.0297619,-1.916666667,14.29504773,13.06230705,39.3877932,713.8571984,33.29801832,0.134535718,33.16348137,16.18372301,23.45346563,23.60876523,6.237029706,375.0178571,47,11.96428571,35.76244191,127.2678571,52.94642857,57.58928571,87.98214286
Albany1,NORTH AMERICA,1.78,31.62874532,-84.21254682,18.92383478,13.39349602,43.53670225,675.5175977,33.61509503,2.851584293,30.76351045,11.72215235,19.71932939,26.89768946,10.30186046,1291.151685,147.2303371,58.44382023,24.62114088,399.8089888,227.8370787,373.7134831,363.7022472
Albany2,NORTH AMERICA,4.521555382,42.75005111,-73.79705443,8.863147738,11.69170159,29.71003209,1002.874541,28.62678448,-10.7262235,39.35300768,20.16726721,-3.946193205,20.91987947,-3.946193205,973.4341498,96.51115553,55.4723782,15.9871566,285.3227485,189.0003636,285.1571458,189.0003636
Albany3,NORTH AMERICA,0.73,44.66780822,-123.1312785,11.55521324,11.9165777,44.08289656,543.1793154,28.1425336,1.109178127,27.03335587,5.606232963,18.2531281,18.5493036,5.243566258,1092.972603,186.109589,14.45205479,66.81791049,522.8219178,72.65753425,73.16438356,485.4657534
Albany4,AUSTRALIA,0.26,-34.98076923,117.8333333,15.32561904,9.037865712,55.07971837,284.7967388,24.07145207,7.662269299,16.40918292,12.00411378,18.5787647,18.91560422,12.00411378,881.8461539,138.4615385,23,56.41494487,375.6153846,75.23076923,86.23076923,375.6153846
Albert Lea,NORTH AMERICA,0.35,43.68333333,-93.41666667,7.039758301,11.14318352,25.27508278,1195.798755,28.19279938,-15.89459953,44.08739929,21.02493324,-8.567499924,21.02493324,-8.567499924,791,108.8,17,51.18193207,317.8,63,317.8,63
Albuquerque,NORTH AMERICA,7.44,35.1780914,-106.671595,13.2605578,16.60908121,42.42249631,855.5314081,33.68305217,-5.459810582,39.14286248,23.06558279,3.71917178,24.03089893,2.952112203,265.0766129,48.04569892,12.10080645,50.63808438,117.9811828,39.23387096,102.2930107,39.76075268
Albury,AUSTRALIA,0.49,-36.0170068,146.8928571,15.23598241,12.57707319,45.40427383,562.9054516,30.79889839,3.099469316,27.69942903,9.36753781,20.01571114,22.30160176,8.453122295,729.1428571,83.3877551,38.04081632,23.82823283,238.2653061,135.7755102,140.3877551,231.1632653
Aldama,NORTH AMERICA,0.06,22.97222222,-98.08333333,23.55649948,10.6065553,51.34918213,382.7301026,32.41133372,11.75599988,20.65533384,27.02038956,21.92555618,27.41405551,18.22972171,949.3333332,183.6666666,14.66666666,83.22232056,499.3333333,58.33333333,475.3333333,74.66666665
Aldan,ASIA,0.31,58.66666667,125.3333333,-5.788208485,10.21675014,19.06323433,1617.992676,22.32799911,-31.26600075,53.59400177,14.30233288,-22.25900078,14.30233288,-25.36933327,639,96,21,53.79391479,274,69,274,76
Aleksandrovsk,ASIA,0.18,50.91666667,142.1111111,0.294283132,8.28474172,19.88251432,1207.729248,19.74317932,-21.92528216,41.66845957,10.68489297,-8.133705457,14.29931227,-15.17230352,654.3333333,95.99999999,27.33333333,45.89803441,277.6666667,86.33333333,244.6666667,117.3333333
Alekseyevka,EUROPE,0.32,50.66666667,38.6484375,6.800735712,9.367877305,25.0328204,1054.692856,26.21493793,-11.20762485,37.4225632,19.26933914,0.412656332,19.26933914,-6.268853933,538.21875,63.21875,29,22.90948451,175.21875,99,175.21875,119
Aleksin,EUROPE,0.56,54.5610119,37.02529762,4.900491859,8.249650427,23.85984261,985.1876689,23.04005378,-11.53526798,34.5753231,16.77885703,-1.242434536,16.77885703,-7.344523907,605.8928571,83,29.75,32.77595213,222.7321429,96.5,222.7321429,113.1964286
Aleppo,ASIA,2.91,36.2545819,37.12485682,17.49462805,12.38071401,36.44556251,857.2949582,35.55992833,1.599137452,33.96079099,6.852471886,27.60415166,27.61647814,6.852471886,313.0171821,57.6975945,0,81.89342803,161.9450172,2.030927835,2.151202749,161.9450172
Alexandria1,NORTH AMERICA,1.34,31.35385572,-92.4869403,19.20305779,12.18747991,39.90888134,703.0167113,33.80820106,3.270589519,30.53761139,11.25986451,27.00631078,27.56406024,10.26125746,1542.373134,163.3059701,104.7089552,14.21809976,450.3059701,321,337.6865672,434.2985075
Alexandria2,NORTH AMERICA,14.21829432,38.91487614,-77.30529718,13.275241,11.82681244,33.6165131,876.3402302,31.05932392,-4.118030373,35.17735457,22.14339733,2.274663283,23.93584885,2.274663283,1029.05789,101.106183,68.53093909,10.89258426,286.1970763,223.7667498,279.9241256,223.7667498
Alexandria3,AFRICA,4.95,31.23602694,29.97491582,20.74142967,9.420475833,43.06621746,487.4540873,31.15349479,9.289986528,21.86350796,16.30818902,26.15527146,26.48294784,14.73206861,163.9292929,45.52929293,0,114.7556499,114.5676768,0,0.068686869,110.9838384
Alexandroupoli,EUROPE,0.26,40.91666667,25.84935897,13.89758176,8.683273242,30.98617018,719.917842,29.322725,1.300330194,28.02239543,10.51180718,22.55395684,22.96951558,5.467175007,563.2307692,82,14.80769231,45.00384609,219,63.61538462,71.42307692,195
Aleysk,ASIA,0.37,52.52252252,82.73873874,2.762631739,11.30558797,24.43410755,1341.761917,26.8402429,-19.42956713,46.26981055,18.82216273,-12.17724769,18.82216273,-13.79523847,465.3783784,66,19.32432432,33.52101764,167.1351351,70.91891892,167.1351351,85.59459459
Algeciras,EUROPE,0.561156425,36.19653897,-5.495373182,17.66065789,7.697478453,38.86866182,430.1453914,28.72080292,8.920528761,19.80027392,13.78734909,22.92731988,23.37749365,12.8234858,789.6906329,145.2275429,0.697054168,77.07349094,390.713421,16,22.64153235,368.8100391
Algha,ASIA,0.2,49.925,57.275,4.780133533,11.34214973,23.56579685,1395.403357,30.05250015,-18.07709942,48.12959976,19.5748003,-11.38468323,21.45120049,-12.48274984,296.6,30.4,19,14.14190435,85.4,62,80.5,70.1
Algiers,AFRICA,18.5,36.70441441,3.053108108,17.57859886,10.84222947,41.98314694,544.2653592,31.80658783,5.979456174,25.82713165,12.70001041,24.24362695,24.75804018,11.54008827,704.3356757,110.2508108,3.028108108,62.04649732,308.6254054,26.19567568,44.40432432,290.5183784
Ali Bayramli,ASIA,0.27,40,48.88888889,14.94683297,8.737055461,27.18167941,869.1705526,32.59766642,0.453999996,32.14366722,8.650389036,25.82805634,25.82805634,4.713166714,297,37.33333333,5,41.13656235,100.6666667,31,31,81.33333333
Ali Sabih,AFRICA,0.08,11.16666667,42.66666667,26.18370819,9.673749924,47.17061234,388.8575134,36.88100052,16.37299919,20.50800133,30.09199905,23.49416733,30.81150055,21.45183372,204,38,5,53.9671936,88,29,64,35
Alicante,EUROPE,1.81,38.43232044,-0.527624309,17.52319242,11.54094368,43.75316934,547.5998309,31.6139428,5.229703249,26.38423947,18.7060364,24.42579078,24.67274782,11.35327527,325.3812155,52.20994475,6.121546961,46.22765666,129.3867403,32.60220994,52.12154696,75.10497238
Alice,NORTH AMERICA,0.31,27.79569892,-98.10215054,22.08245382,12.64926307,43.49955528,599.6746669,35.73167629,6.65209681,29.07957975,26.5757693,15.26594057,28.9062252,14.13203735,694.1935484,111.483871,30.25806452,46.09096835,263.4516129,99.61290322,207.3548387,103
Alice Springs,AUSTRALIA,0.3,-23.66666667,133.8333333,21.19849968,14.57816696,46.40363693,619.0595093,36.09000015,4.673999786,31.41600037,27.50016594,15.21500015,28.22799873,13.1335001,325,48,9,50.4368515,136,33,133,37
Aligarh,ASIA,101.4130124,28.0281658,78.11554667,24.99363737,13.42580002,39.56246956,689.4134286,41.09140441,7.156044178,33.93536023,29.50318432,28.00587913,32.53746191,15.58634014,791.2648169,260.5613872,3.201706978,138.5037802,639.2488018,24.29397009,269.6321658,34.18114923
Alipur Duar,ASIA,68.7915195,26.4313805,89.76766511,24.7892883,9.705914077,47.25374084,383.1844316,32.15604382,11.60978992,20.54625381,28.17190183,19.85376545,28.34748115,19.20318024,3174.351662,751.6809325,3.195678381,106.8201482,1993.91164,25.93606156,1660.735801,27.31640188
Aliwal North,AFRICA,0.12,-30.66666667,26.66666667,15.62508297,16.45816612,52.1620369,537.3392944,30.68300056,-0.869000018,31.55200005,21.22416687,8.963832855,21.79850006,8.586999893,556,96,13,57.33198166,246,50,224,51
Allahabad,ASIA,96.55722996,25.37034581,81.66294533,25.7219833,12.62092837,38.74525909,615.8384621,41.32666055,8.753305871,32.57335468,28.90521547,29.18473658,32.54583212,17.27588914,973.9213749,316.0352899,3.100024452,140.9519229,785.194488,20.95429475,99.34122554,37.42484831
Allanmyo,ASIA,0.19,19.39912281,95.16666667,27.16169598,11.84893422,45.67959133,314.1992107,38.95973687,13.02057919,25.93915769,28.11792153,24.67229783,30.49103426,22.67866757,935.3684211,158.6842105,1,87.97305659,465.0526316,8,293.9473684,10.21052632
Allappey,ASIA,24.11914575,9.571489482,76.4904287,27.44018664,7.439521847,66.66739599,101.0028621,33.18585786,22.0297712,11.15608666,26.69339675,27.17119188,29.0209674,26.65401035,3086.515239,641.9106037,16.83475837,83.1941282,1653.677049,97.43380559,513.5285546,1008.568027
Allende,NORTH AMERICA,0.13,28.40384615,-100.9102564,20.47091983,15.77166022,49.12200605,638.8159602,36.25746213,4.149615471,32.10784648,24.98055091,13.83952552,27.93476853,12.20641041,445.3076923,95.69230769,9.846153845,66.39832247,191.5384615,40.76923077,131.0769231,41.92307692
Allentown,NORTH AMERICA,6.36,40.67439727,-75.45073375,10.55892518,12.10008513,32.80541469,930.3706899,29.4031443,-7.478971711,36.88211544,19.54611726,-0.967816038,21.80524813,-1.136685282,1150.621069,114.8349057,70.08018868,12.94386515,326.822327,243.1147799,317.6367925,243.1147799
Alliance,NORTH AMERICA,0.18,42.16666667,-102.9166667,8.856958389,15.52425003,36.53194427,978.6315308,31.18199921,-11.31299973,42.49499893,18.55116653,-2.812666655,21.31716728,-2.812666655,411,80,9,70.46273041,208,27,168,27
Almaty,ASIA,5.06,43.32114625,76.86149539,9.27364165,11.44555751,27.432684,1108.855453,30.31159669,-11.41225881,41.72385562,11.39592328,14.40642132,22.51557608,-4.77297529,504.8142292,80.99604743,22.65612648,44.30091201,202.8537549,78.13438735,101.1482213,87.49407114
Almenara,SOUTH AMERICA,0.12,-16.15277778,-40.75,23.66428439,10.7340703,66.31857936,178.3109563,30.97350057,14.78783305,16.18566831,25.02680524,21.68427722,25.42908319,21.09997209,853.6666667,156.5,22.5,66.2060318,415,75.5,270.1666667,77.16666667
Almeria,EUROPE,0.54,36.91203704,-2.487654321,17.47022134,11.05235587,41.39866977,564.0336541,32.18182172,5.485101462,26.69671952,14.66662147,24.63082963,24.85949951,11.11907731,243.2777778,32.74074074,2,51.06476635,93.81481481,15.74074074,17.94444444,83.55555555
Almetyevsk,EUROPE,0.8,54.93541667,52.28333333,3.730796838,8.895137298,21.74005892,1212.606485,24.92604976,-15.98723755,40.91328855,18.10144203,-3.944556278,18.10144203,-11.29777936,528.1,67.0625,25.0625,29.86738348,185.05,87.1125,185.05,99.6625
Almirante,SOUTH AMERICA,0.05,9.333333333,-82.41666667,25.71029472,7.489215851,81.4913559,50.03673935,30.09019661,20.89999962,9.190196991,26.04934692,25.18039322,26.22712326,24.98856163,2863,327,124,27.68972969,888,437,754,593
Alor Setar,ASIA,2.85,6.152046784,100.3315789,27.65398756,8.854415539,74.76549739,61.22522184,34.05413342,22.21177032,11.8423631,27.19196192,27.42015588,28.4871388,27.03574943,2174.463158,328.954386,38.16140351,50.58643678,860.1614035,178.9649123,442.9649122,450.1754386
Alotau,MELANESIA,0.05,-10.25,150.4166667,24.72557259,6.830312729,70.65232086,101.2060013,29.98624992,20.31875038,9.667499542,23.82250023,25.59187508,25.87708282,23.42541695,2927,318,162,18.05319977,871,589,650,834
Alpena,NORTH AMERICA,0.41,45.09756098,-83.49593496,6.602833283,10.69121117,28.12396719,991.1063724,26.24292718,-11.77104864,38.01397566,17.82210959,-5.751231554,18.56025598,-5.751231554,734.2439024,86.12195122,34,23.64765484,240.0243902,129.3170732,229.9756098,129.3170732
Alpine,NORTH AMERICA,0.13,30.41666667,-103.6987179,16.09971516,16.863212,49.92351708,642.4965163,32.34523098,-1.431846169,33.77707643,22.87061515,9.427358774,23.92799935,8.078884601,428.5384615,82,9,76.06326705,227.9230769,32.61538461,199.3076923,37.61538461
Alta Gracia,SOUTH AMERICA,0.22,-31.59469697,-64.47727273,16.34487239,13.16048124,50.90604851,465.7692732,28.73672737,2.885227247,25.85149964,21.69709839,10.38743964,21.94039353,10.38743964,751.7272727,119.9090909,10.13636364,66.43388748,330.5909091,37.59090909,330.1818182,37.59090909
Altagracia de Orituco,SOUTH AMERICA,0.17,9.916666667,-66.41666667,24.84933281,10.02083302,82.87844849,57.09941864,31.01399994,18.92300034,12.0909996,24.73633194,24.43016624,25.54483414,24.18383408,1081,179,13,73.14215088,532,44,318,70
Altamira,SOUTH AMERICA,0.07,-3.166666667,-52.25,26.18000031,9.940999985,80.68992615,61.63681793,32.89400101,20.5739994,12.3200016,25.53483391,26.97949982,26.99250031,25.4683342,1976,369,35,74.02825928,974,117,146,940
Altay,ASIA,0.130009156,47.90384706,88.08333333,3.581138037,12.25830782,25.23390052,1355.556164,27.76668242,-20.81377077,48.5804548,19.52155247,-11.4096587,19.52155247,-13.47082435,187,29.69232936,6.15383532,38.54439811,69.2308234,23.30767064,69.2308234,31.61534128
Alton,NORTH AMERICA,1.45,38.9362069,-90.16954023,12.4281633,11.29294359,29.40825635,992.6463817,31.22169645,-7.178731129,38.40042788,22.05165157,-0.440402343,24.21892816,-0.440402343,970.4275862,103.5793103,48.07586207,20.6462822,292.1517241,176.3793103,272.6896552,176.3793103
Altoona,NORTH AMERICA,1.12,40.53422619,-78.43973214,9.631706289,11.52223791,32.14837827,908.9496433,27.99745529,-7.841098202,35.83855418,18.48938835,-1.848321434,20.58340004,-1.848321434,995.6428571,101.2142857,64.42857143,15.34849059,299.0267857,200.8125,284.3928571,200.8125
Alvorada,SOUTH AMERICA,0.01,-12.41666667,-49.16666667,25.70241737,12.2510004,68.92263794,91.20220947,33.77600098,16.00099945,17.77500153,25.82733345,24.52233315,26.69983292,24.49100113,1622,291,3,85.78838348,821,13,409,33
Alwar,ASIA,18.89953245,27.61682884,76.83377908,25.24896561,14.05481021,40.50470465,700.4897506,41.50929386,6.811257263,34.69803694,29.71029401,22.14786162,32.83970824,15.59135746,648.9388492,225.9006951,3.121119095,144.7621319,541.9258796,17.57375696,234.8923852,23.86955512
Alxa Zuoqi,ASIA,0.08,38.875,105.6354167,7.696500066,13.91147888,31.10838247,1150.10878,28.93875027,-15.77687478,44.71562672,19.59399987,-7.167958257,21.24256254,-7.167958257,194.25,48.37499999,1,92.32113076,116.25,5,112.75,5
Am Timan,AFRICA,0.12,11.08333333,20.25,27.63720894,15.82774925,61.67296982,219.9540253,39.78199768,14.11800003,25.66399765,26.41049957,25.79100037,30.8409996,25.45983315,808,232,0,121.459938,566,0,87,2
Amahai,MELANESIA,0.03,-3.305555555,128.8888889,25.68568357,7.548718135,78.19749196,76.16201019,30.89487203,21.24102529,9.653846741,24.99230703,26.28119723,26.28119723,24.56410281,2691.666666,386.3333333,96,42.53413899,1066.666667,356.6666667,356.6666667,1039
Amapa,SOUTH AMERICA,0.04,2.083333333,-50.83333333,26.8793335,7.647000313,71.58101654,83.19495392,33.24000168,22.55700111,10.68300056,26.29500008,28.02316666,28.02316666,25.93050003,2507,371,29,64.31571198,1065,112,112,993
Amarillo,NORTH AMERICA,2.04,35.23488562,-101.8962418,13.9233617,15.52387393,40.34840674,865.5005182,33.04804415,-5.424607817,38.47265161,24.61895639,3.264771214,24.61895639,3.264771214,488.1421569,84.13235294,12.29901961,61.99765278,223.8333333,39.96078431,223.8333333,39.96078431
Amasya,ASIA,0.24,40.68402778,35.78125,10.98434011,10.54402069,35.36475166,729.264595,26.8669165,-2.94808343,29.8150003,14.55260412,19.34425044,19.67267307,1.798826417,459.5,56.91666666,10.58333333,38.92626794,156.9583333,49.16666666,74.16666666,137.3333333
Ambala,ASIA,27.117969,30.33354765,76.8801662,23.529852,12.77913462,39.07031808,696.2201053,38.96218921,6.253653535,32.70853551,28.72497234,26.24569485,31.07463802,14.1154456,952.458839,279.7399236,5.403437128,121.7492246,701.1699709,48.98988861,333.4504746,88.50847663
Ambanja,AFRICA,0.06,-13.625,48.41666667,26.10318756,10.11412525,71.40941238,135.5736008,32.09449959,17.93049908,14.16400051,27.05541611,24.16874981,27.30808353,24.16874981,2103,515.5,23.5,99.58153915,1288,86,871,86
Ambato,SOUTH AMERICA,1.397942212,-1.206728992,-78.64401432,13.21163219,11.45313065,82.94053124,65.05672982,20.40362305,6.59486828,13.80875473,13.47525193,12.69106313,13.76650584,12.2520854,611.4738264,70.96970781,35.67536095,21.46687835,195.0181027,118.7712988,130.9949639,137.3540793
Ambatondrazaka,AFRICA,0.12,-17.77777778,48.38888889,20.84904893,12.45059729,67.46819369,246.745842,29.50274992,11.04791673,18.45483319,23.35742998,17.63280551,23.35742998,17.58650049,1106.666667,263.3333333,5.583333333,108.1539459,700.8333333,25.49999999,700.8333333,30.08333332
Ambon,MELANESIA,0.36,-3.648148148,128.1574074,25.95941205,7.145024141,77.3993988,87.65197245,30.77568203,21.54448573,9.231196297,25.19335959,26.48321872,26.77440135,24.72559484,2688.333333,403.5555555,112.8888889,42.09760539,1084.555556,421.7777778,494.5555556,1052.444444
Amderma,EUROPE,0.01,69.83333333,61.58333333,-6.601110935,6.654444218,19.1073246,1007.208435,11.19999981,-23.62666702,34.82666779,6.122221947,-10.30888844,6.122221947,-18.21222305,407,47,19,28.67756271,139,65,139,92
Americana,SOUTH AMERICA,3.829709453,-22.73639914,-47.36563434,20.55462546,10.96538744,62.72937748,243.2407257,28.05057227,10.56985778,17.48071406,23.06376308,17.31474707,23.10584899,17.31474707,1246.331657,233.434038,25.11212219,70.91762388,627.2769908,91.57057199,570.6710875,91.57057199
Ames,NORTH AMERICA,0.62,42.0766129,-93.68413978,8.993088861,11.84982281,27.7023891,1133.885457,29.60351566,-13.17306468,42.77658149,21.69969143,-5.821887001,22.26080396,-5.821887001,848.2741936,128.4193548,19.79032258,51.26807736,338.0806452,72.58064516,337.5,72.58064516
Amherst,NORTH AMERICA,0.16,45.859375,-64.25,5.735448033,9.747041881,26.88470626,947.6433639,23.80825019,-12.44668734,36.25493813,2.312447891,9.535458386,17.06345856,-6.175604045,1162.25,117.75,85.0625,11.03893119,333.8125,266.8125,267.4375,312.1875
Amiens,EUROPE,1.26,49.92989418,2.262566138,10.35175614,7.812361221,35.40281405,529.8069429,23.0443492,0.978150776,22.06619908,7.467223531,6.514088559,16.96270817,4.101642853,669.4047619,65.84126984,44.99206349,12.57612557,189.1746032,140.0793651,166.8968254,164.5873016
Amman,ASIA,7.48,31.99933155,35.89505348,17.00834462,11.18345466,40.27318779,662.6335281,31.29763485,3.538974604,27.75866051,8.527569286,24.36752169,24.38287349,8.527569286,303.7887701,68.71122995,0,109.035769,193.5641711,0,0,193.5641711
Ammochostos,ASIA,0.33,35.16666667,33.89141414,19.33068079,11.38342398,41.22826004,623.1976282,33.75146242,6.152511336,27.59895013,12.000766,26.78072773,26.95162941,12.000766,402.5757576,108.4848485,0,99.01289807,237.2727273,3.606060608,4.606060608,237.2727273
Amol,ASIA,1.12,36.515625,52.31324405,17.12445848,8.517491051,30.45381624,739.4682317,31.23563436,3.26837495,27.96725915,13.80379428,23.82106161,26.07129797,8.228778345,867.8303571,151.3482143,22.76785714,59.67951138,394.0089286,75.63392857,97.55357143,276.5267857
Amos,NORTH AMERICA,0.18,48.59722222,-78.16666667,0.954701394,11.89990282,25.02866395,1266.362528,23.43583361,-24.10916646,47.54500198,14.45077817,-14.32833306,15.57122231,-15.51177804,921.1666667,108.5,38.83333333,32.12748464,322.8333333,143,316.5,151.3333333
Amravati,ASIA,1.83,20.97040073,77.70582878,27.34264553,12.67620317,44.69282211,421.3270204,42.78325224,14.42215839,28.36109362,26.7718302,28.88827712,33.28388187,22.51479256,817.8087432,231.9071038,6.103825137,122.9098732,583.5628415,24.77595628,147.4972678,29.96174863
Amritsar,ASIA,293.2212817,31.58068152,75.3772806,23.15776102,13.09203932,38.30679566,734.8536683,39.40016229,5.22710473,34.17305755,29.02588341,18.91198566,31.16557399,13.31396965,832.4128634,250.7591502,6.351710567,119.8974686,590.9474139,45.86754503,311.7202269,93.43265033
Amsterdam,EUROPE,5.69,52.39220855,4.825864089,9.739855158,7.109113071,33.52505619,525.9245151,21.55733899,0.356435858,21.20090312,10.56213898,5.704141436,16.22243635,3.478939664,836.1195079,93.69244288,45.32864675,22.38064336,268.8365554,160.3550088,201.6467487,203.7275923
Amursk,ASIA,0.23,50.25,136.8405797,-0.466461855,11.766888,20.79922427,1663.507239,25.63013118,-30.94352258,56.57365218,16.82723941,-18.51452877,18.59006608,-22.55085448,580.5652174,115.9130435,9,76.96860338,306.7391304,34.91304348,294.5652174,35
An Najaf,ASIA,1.76,32.05539773,44.34090909,24.04165151,13.92782057,35.3767483,962.6190571,44.14418208,4.772886404,39.37129541,11.85440561,35.32046028,35.32046028,11.85440561,75.38636363,18.74431818,0,83.11385879,40.38068182,0,0,40.38068182
An Nasiriyah,ASIA,0.7,31.09642857,46.20714286,24.10026673,14.64206467,39.58659319,876.4969639,43.08697226,6.105171353,36.98180204,14.22942653,34.06773861,34.06773861,12.81694533,103.2428571,22.15714286,0,87.49890202,58.01428571,0,0,58.01428571
Anaco,SOUTH AMERICA,0.51,9.485294118,-64.5,26.11235271,11.46161753,82.65261213,46.5128129,32.98453073,19.11741234,13.86711839,25.90946085,25.7800293,26.66153941,25.59451956,1039.529412,178.7647059,9.352941177,73.96675245,516.9411765,44.11764706,118.5294118,77.88235294
Anapolis,SOUTH AMERICA,1.31,-16.29389313,-48.98664122,22.00196821,10.15227163,68.16453983,102.4456983,29.02079359,14.12660313,14.89419046,22.21621716,20.79853576,23.01307349,20.51745667,1658.167939,281.4885496,11,77.25994646,800.0229008,37.93129771,465.3587786,62
Anatuya,SOUTH AMERICA,0.14,-28.41666667,-62.875,20.44658375,13.8109169,50.1101265,486.3248596,33.64900017,6.088000059,27.56100082,25.30666542,14.2378335,26.19658375,14.2378335,706,111.5,9.499999999,70.17314529,332,35,323,35
Anbyon,ASIA,0.07,39.08333333,127.5,10.42000008,9.442832947,27.2018013,945.1126099,26.24699974,-8.467000007,34.7140007,21.16483307,-1.746500015,21.4311676,-1.746500015,1066,261,17,93.75414276,647,60,606,60
Anchorage,NORTH AMERICA,4.02,61.21185738,-149.8874378,2.460986815,7.848716784,24.78117508,905.8675308,19.04034515,-12.643501,31.68384633,8.074991204,5.544821856,13.8030459,-8.133791626,875.4477612,136.6741294,40.29850746,40.6365782,347.0845771,128.4825871,211.0298507,215.7363184
Ancona,EUROPE,0.9,43.58981481,13.4787037,13.79573787,9.108290938,34.16349937,658.3857273,28.43257595,1.796196336,26.63637973,14.77550162,6.7183879,22.07710745,6.041660075,705.8111111,80.46666667,43.03333333,20.02275276,224.9888889,145.5666667,167.2666667,151.1111111
Ancud,SOUTH AMERICA,0.17,-41.83333333,-73.83823529,10.50093253,6.403354841,48.97067777,240.4773326,17.92052987,4.844921336,13.07560898,8.241336879,13.47874204,13.50164369,7.708353183,2490.411765,353.4117647,105.9411765,45.70936966,1018.470588,350.4705882,350.4705882,974.7058823
Anda,ASIA,1.38,46.47282609,125.2204106,4.05409394,11.52726605,22.0433658,1512.503251,28.00312276,-24.27820278,52.28132555,21.81601466,-15.56357341,21.81601466,-15.56357341,463.5942029,147.5,2,117.1928327,321.1956522,9,321.1956522,9
Anderson,NORTH AMERICA,1.25,34.562,-82.70466667,15.97368077,13.0543918,39.37381113,762.8230635,32.45066412,-0.704312007,33.15497723,7.948048019,20.01450372,25.26772868,6.396569344,1304.456,136.872,91.944,12.52632608,382.016,290.208,309.28,355.904
Andijon,ASIA,10.72,40.77347637,72.17467351,13.56495697,12.37762128,30.85235454,1036.770486,34.25011255,-5.866438452,40.1165506,8.524525932,23.77795063,25.78675397,0.12616015,234.5951492,31.23787313,3.644589552,49.78650533,89.02238806,15.04291045,20.63526119,80.40391791
Andkhvoy,ASIA,0.6,36.97638889,65.06388889,16.82803167,14.44006688,34.18328762,1030.464278,39.69775111,-2.543750068,42.24150136,5.837488691,29.71803099,29.71803099,4.150049957,233.1833333,57.33333333,0,95.69190458,136.65,1,1,110.8333333
Andoany,AFRICA,0.1,-13.33333333,48.25,25.78652,9.028921127,68.71324921,137.795578,31.40353012,18.26352882,13.1400013,26.72588348,24.04176521,27.03745079,23.80313683,2145,512,32,95.39192963,1284,99,877,104
Andong,ASIA,0.41,36.59552846,128.6808943,11.61794027,11.54244918,30.85706492,980.7896178,29.16673111,-8.238463378,37.4051951,22.74592297,-0.923910578,23.29228913,-0.923910578,1122.585366,235.097561,25.14634146,76.48037162,592.9512195,90.6097561,584.8780488,90.6097561
Andorra,EUROPE,0.37,42.57207207,1.495495495,6.134661191,9.520650967,36.06340501,615.1949826,21.32526991,-5.076108076,26.4013775,3.60154499,12.99713519,14.1520136,-0.666013544,1119.243243,120.7837838,65.05405405,17.28170302,323.8648649,232.972973,233.9459459,271.8378378
Andradina,SOUTH AMERICA,0.35,-20.8452381,-51.41666667,22.85728564,11.91445269,63.53940746,252.203877,30.67399951,11.92271382,18.75128664,25.34116718,19.54680988,25.34116718,19.41033282,1192,208,21.14285714,62.70117678,550.8571428,84,550.8571428,127.8571429
Androka,AFRICA,0.01,-25,44,24.65171623,13.43872547,63.24981308,313.7708435,34.41176605,13.16470623,21.24705887,28.09607887,21.30882263,28.13039207,20.60000038,430,88,7,90.05031586,259,26,226,34
Angangxi,ASIA,0.27,47.18209877,123.7746914,4.026688355,11.68034571,22.53696562,1507.916658,27.66818477,-24.15937113,51.82755435,21.5621915,-15.64611106,21.5621915,-15.64611106,413.3333333,134.8148148,1,120.012374,291.8888889,6,291.8888889,6
Angarsk,ASIA,1.81,52.59990792,103.8554328,0.424926322,11.26146857,22.9498113,1395.633958,24.56021577,-24.51277379,49.07298945,16.95670123,-14.29953772,16.95670123,-17.614936,428.0994475,102.3535912,7,89.35957943,253.8232044,25.98895028,253.8232044,32.0718232
Angeles,MALAY ARCHIPELAGO,16.07477916,15.09566348,120.6245537,27.3987147,8.556879643,64.43298444,109.9550276,34.47470323,21.20471003,13.2699932,27.37382287,26.57059884,28.85136319,26.03169335,2326.289208,538.0694937,7.714464315,97.2679516,1382.578611,36.23187515,559.0923946,60.82151805
Angers,EUROPE,2.24,47.50186012,-0.591517857,11.85052708,8.955971284,38.63239918,536.2383894,25.32696895,2.14462058,23.18234863,6.364139829,18.66211854,18.66211854,5.600333269,720.9553571,77.07142857,42.74107143,20.80910473,227.1919643,131.4375,131.4375,216.3839286
Angoche,AFRICA,0.28,-16.16369048,39.88392857,26.27452162,10.54017285,63.58622156,221.6375999,33.78282356,17.20984827,16.57297529,28.32145323,25.01324592,28.4663635,23.18059594,1008.785714,214.0714286,5.428571429,89.93293571,584.5714286,44.32142857,529.8214286,81.17857143
Angol,SOUTH AMERICA,0.22,-37.75,-72.75,12.46733379,11.64916706,52.11455536,394.4924316,25.89800072,3.545000076,22.35300064,8.403166771,17.5878334,17.5878334,7.864666939,1151,228,18,81.97621918,631,68,68,602
Angra do Heroismo,EUROPE,0.06,38.66666667,-27.25,18.90539169,5.839215279,41.20658493,294.9658813,26.94117546,12.77058792,14.17058754,16.90294075,22.15392113,23.00098038,15.75,1101,136,38,37.2414856,400,143,188,339
Angren,ASIA,1.12,41.05654762,70.04315476,11.95484574,12.73335539,33.16042634,939.0087302,32.90871484,-5.495267953,38.40398244,6.553984974,22.24081223,23.4316162,0.127443484,518.5,77.48214285,5.535714285,55.99843482,203.0714286,27.94642857,36.39285714,171.4642857
Ankang,ASIA,8.28,32.82568438,108.7491948,14.58908968,8.949186644,28.91538729,820.4428854,29.86189601,-1.080547105,30.94244304,23.53538802,4.203223618,24.58286674,4.203223618,904.8550725,160.4202899,9.399758455,68.07512144,419.4118358,36.08816425,381.3574879,36.08816425
Ankara,ASIA,8.1,39.99897119,32.71183128,10.80571253,12.09097051,35.2353143,832.7779095,29.54410598,-4.763524649,34.30763093,5.763492834,20.53470717,20.92959276,0.463689115,400.7617284,52.80123457,10.11358025,41.34934657,136.908642,39.17530864,57.87901235,133.2432099
Anlu,ASIA,12.1291555,31.28006038,113.647087,16.19912961,8.575588317,26.46507225,899.0156761,31.46616611,-0.936782166,32.40294835,24.8837281,4.765971457,26.89689668,4.765971457,1101.409241,184.1095611,22.10402617,55.93959499,482.0382123,94.26123645,457.7940658,94.26123645
Ann Arbor,NORTH AMERICA,3.28,42.28912602,-83.72992886,9.071672815,10.54415194,28.20916128,999.7832139,28.30211268,-9.075518251,37.37763111,21.11199748,-2.502439102,21.11199748,-3.602466468,856.652439,88.08841463,46.68292683,19.00094685,251.9573171,162.2987805,251.9573171,162.3536585
Anna Regina,SOUTH AMERICA,0.06,7.333333333,-58.5,27.13631058,6.575595379,77.5554657,51.08900452,31.87857056,23.39999962,8.478570938,26.89404869,26.88154793,27.82321548,26.625,1888,272,73,41.67232132,702,274,343,320
Annaba,AFRICA,1.66,36.88504016,7.699799197,17.7107845,10.03883126,40.5360269,546.5059796,31.81467324,7.069065516,24.74560763,11.98407732,24.3372281,24.85136432,11.64939705,843.8072289,145.9879518,4,68.82725038,398.0722892,32.3313253,51.81927711,398.0722892
Annapolis,NORTH AMERICA,0.94,39.00886525,-76.56382979,13.29514462,10.84656159,31.66464935,871.207752,30.64751631,-3.605930998,34.25344715,21.69448134,2.417854535,23.91171206,2.417854535,1109.893617,108.5425532,73.0106383,12.28097249,310.7765957,245.5425532,307.3829787,245.5425532
Annecy,EUROPE,1.32,45.96527778,6.061237374,9.546493624,9.544452198,34.38024925,664.3290271,25.12829516,-2.630992411,27.75928753,9.704130101,8.905315689,17.88988587,1.559829522,1058.227273,101.6893939,72.4469697,12.49332796,302.5909091,233.5530303,247.8787879,274.5378788
Anqing,ASIA,1.77,30.60310734,116.9995292,16.78148377,7.558937838,24.26153782,885.1853903,32.14886368,0.993039528,31.15582367,20.97599853,5.698974445,27.41390145,5.698974445,1505.299435,287.0734463,32.52542373,55.68890055,618.4576271,141.1299435,605.559322,141.1299435
Ansan,ASIA,5.259219283,37.42177876,126.8056438,11.62697065,9.125788729,24.90294452,1028.078704,28.8410734,-7.803761041,36.64483458,23.37335191,-1.575349853,23.76603812,-1.575349853,1286.904691,306.9843978,25.01009999,89.19527865,739.724425,80.9264846,722.9919022,80.9264846
Anshan,ASIA,14.28052935,41.24465834,122.9958796,8.798950767,10.52679256,24.01042852,1242.423813,28.10284387,-15.73782858,43.84067253,23.14727088,-7.533401825,23.14727088,-7.533401825,686.8010125,183.3138691,5.47032146,104.391363,433.9731866,20.26012124,433.9731866,20.26012124
Anshun,ASIA,8.84,26.27319005,105.7613122,14.75166232,8.002867374,31.95150684,638.9453177,26.48629407,1.438591617,25.04770239,21.63544321,6.236921705,22.00253303,6.236921705,1189.364253,231.7567873,17.97624434,75.20209309,592.9954751,60.72171946,592.0520362,60.72171946
Antalaha,AFRICA,0.08,-14.84375,50.25,24.89848828,7.756803453,60.71068859,191.0735359,31.36318064,18.58655214,12.77662849,27.02907038,24.1102469,27.07843399,22.45632195,2808,358.375,96.375,37.13269043,992.125,332.25,990.75,562.125
Antalya,ASIA,2.86,36.94376457,30.67132867,17.7672079,13.00627014,39.19305939,753.3215712,35.84564545,2.663174653,33.18247085,8.803747657,26.85130716,27.30026944,8.803747657,734.3601399,142.6923077,8.769230769,78.8544045,386.7832168,31.45804196,35.68531468,386.7832168
Antananarivo,AFRICA,8.64,-18.83526235,47.43412423,18.73836453,11.31374008,65.77189901,242.2903846,26.30647933,9.107098297,17.19938114,21.10379642,15.38430867,21.12027821,15.38430867,1275.28125,297.5023148,8.432870369,105.4842108,802.005787,27.48611111,756.025463,27.48611111
Antigonish,NORTH AMERICA,0.16,45.66666667,-62.02604167,5.778688937,9.393272102,26.56365204,920.3398285,23.48900795,-11.87236434,35.36137199,3.516102865,13.27653092,16.95058203,-5.501399696,1355.5,147,89,17.11609447,428.6875,287.375,302.0625,325
Antofagasta,SOUTH AMERICA,0.62,-23.58736559,-70.4233871,16.98077143,7.01768286,49.2321829,253.6186359,24.29419225,10.04934806,14.24484419,15.16663448,20.18319244,20.18319244,13.97449804,0.838709678,0.838709678,0,22.34904345,0.838709678,0,0,0
Antsirabe,AFRICA,3.54,-19.82627119,47.10334275,15.96783669,12.54164665,65.08442271,271.8369535,24.74129386,5.473406795,19.26788691,18.67746094,12.18749804,18.67746094,12.18749804,1438.853107,296.8813559,14.31920904,89.6528955,811.2457627,47.60451977,811.2457627,47.60451977
Antsiranana,AFRICA,0.25,-12.25666667,49.25,25.7510392,8.901435852,72.11770081,118.6969153,31.45831398,19.11548943,12.34282455,26.6437072,24.22727783,26.7794767,24.08732056,1158.44,316.8,12,116.1125864,788.76,52.84,523.32,57.92
Antsohihy,AFRICA,0.04,-14.83333333,47.91666667,26.30304146,11.17024994,72.49172211,134.1311951,33.23400116,17.82500076,15.4090004,27.2456665,24.35250092,27.40633392,24.35250092,1533,446,2,123.7030792,1063,9,808,9
Antwerpen,EUROPE,13.65173988,51.18473034,4.492693404,10.39790963,7.605798089,33.92238169,554.6091263,22.95760984,0.536598413,22.42101126,7.742970093,6.376966812,17.31332903,3.791296479,786.7430891,75.67487636,49.64549529,13.31222226,220.3131985,163.8843793,206.9508066,189.5835598
Anuradhapura,ASIA,1.31,8.361959288,80.37150127,27.42141428,8.457781915,67.76780258,137.3768057,33.44568017,20.96453409,12.48114608,26.22322786,28.42731798,28.7020826,25.51966918,1320.19084,250.7099237,10.30534351,76.86415881,709.1908397,78.05343511,260.0381679,458.496183
Anxi,ASIA,0.16,40.58333333,95.75,8.903833389,16.08033371,33.60150146,1198.066162,31.38899994,-16.46699905,47.85599899,22.71150017,-6.633166313,22.71150017,-6.633166313,47,12,1,73.31187439,28,3,28,3
Anyang,ASIA,25.25694958,36.16405891,114.4156728,13.88636061,10.8162769,28.61466274,1025.656382,31.66086441,-6.138316515,37.79918085,24.48463642,0.641124288,26.01911107,0.641124288,547.1137796,157.3336053,3.408437311,109.0261081,352.8899265,15.5068004,345.8105813,15.5068004
Anzhero Sudzhensk,ASIA,1.01,56.12128713,85.99257426,0.083516062,10.62653197,23.202532,1281.723699,23.98094011,-21.81467307,45.79561298,15.74351298,-11.5866204,15.74351298,-15.91184516,526.8910891,70,17.92079208,41.24921058,204.9306931,64.93069307,204.9306931,82.28712871
Aomori,ASIA,1.47,40.86621315,140.6978458,9.942233403,7.53037452,24.06954916,882.918369,26.69523435,-4.577131387,31.27236582,18.36272284,7.536094373,20.90333296,-0.631255956,1257.741497,141.8979592,70.59863946,22.74616358,392.9863946,222.7891157,384.6190476,334.3741497
Apalachicola,NORTH AMERICA,0.06,29.75,-85.02777778,20.33297793,9.650323232,38.82561239,591.0229289,31.7984492,6.943281809,24.85516739,27.07999547,23.11524582,27.18449656,12.82291126,1492.666667,206,75.66666667,35.12054952,572.3333333,280.6666667,523.3333333,317
Apatity,EUROPE,0.68,67.61519608,33.36642157,-1.370688755,7.107833337,19.89384132,969.5679842,17.61192678,-18.11845592,35.73038191,9.760603218,-9.370576057,11.00482348,-12.95400524,568.3088235,69.45588235,25.94117647,34.45990288,203.117647,84.10294117,194.1617647,98.11764706
Apatzingan,NORTH AMERICA,0.27,19.13888889,-102.4166667,25.64052773,15.68577798,69.08994802,164.7681224,36.85466766,14.15133349,22.70333417,26.04372215,25.51577759,27.7299455,23.46405538,891.3333333,205,3.666666666,111.1623967,572.3333333,12,187.6666667,31.66666667
Apia,POLYNESIA,0.47,-13.80496454,-171.8156028,25.33767862,6.112281809,79.51009629,55.5640228,29.22419219,21.539008,7.685184195,25.87776476,24.65801738,25.97254928,24.60173375,3423.148936,493.2765958,151.1914894,39.4492918,1280.957447,466.6808511,1173.510638,504.8723405
Apodi,SOUTH AMERICA,0.01,-5.583333334,-37.83333333,27.02958298,10.54850006,69.16142273,120.6050644,34.11600113,18.86400032,15.25200081,27.33133316,27.83316612,28.24816704,25.23633385,784,201,3,104.8979416,493,10,74,110
Apolo,SOUTH AMERICA,0.04,-14.66666667,-68.45833333,20.11393738,12.29579163,74.77801895,114.9943848,27.54899979,11.10549974,16.44349956,20.97125053,18.55208301,21.19158268,18.45241642,1347,211.5,27.5,61.7365036,610,100.5,442,107.5
Appleton,NORTH AMERICA,3.118951695,44.29490784,-88.44686138,7.226266116,10.75183154,25.9094027,1107.839055,27.68310592,-13.81225405,41.49535988,20.35350875,-7.033859009,20.39303594,-7.033859009,778.5607315,96.32743975,26.07374273,37.57090294,273.9153742,94.57965098,273.8393844,94.57965098
Apsheronsk,EUROPE,0.43,44.5,39.67829457,11.40048444,9.29949206,30.89531699,786.2305355,27.25909393,-2.840558141,30.09965214,3.302515551,10.41206972,20.94234844,1.601810048,1253.744186,157.3023256,85,23.73816158,431.3255814,259.2790698,272.2790698,382.1860465
Apucarana,SOUTH AMERICA,0.55,-23.5,-51.5,18.60316658,12.48316669,63.51140594,270.2339172,27.69799995,8.043000221,19.65499878,21.62983322,16.24650002,21.62983322,15.06500053,1511,194,60,33.20063019,538,231,538,281
Aqadyr,ASIA,0.05,48.33333333,72.83333333,3.569541693,12.6307497,25.85407639,1374.149048,28.86599922,-19.98800087,48.85400009,18.2681675,-12.07416725,19.97633362,-13.56183338,236,28,10,25.29739952,79,46,73,52
Aqsay,ASIA,0.17,51.22058824,52.95588235,5.574833365,10.73765687,23.09541691,1344.466883,29.98970615,-16.5028231,46.49252903,21.65576497,-3.26587245,21.65576497,-10.950186,308.1764706,36.64705882,17,22.65272062,95.35294118,54.35294118,95.35294118,70.29411764
Aqtau,ASIA,0.07,43.66666667,51.17857143,12.4890773,7.677392686,21.73297037,1048.598685,31.31499972,-4.00042854,35.31542914,11.74609538,25.41369002,25.41369002,-0.198285707,122.8571429,15.14285714,6,28.86244392,41.28571428,19.14285714,19.14285714,27.14285714
Aqtobe,ASIA,0.96,50.33072917,57.14149306,4.832473536,11.54577688,24.0303371,1381.902327,29.90613556,-18.14084313,48.04697812,19.5378806,-11.18613199,21.30481503,-12.30392555,319,33.96875,20.96875,14.17931829,92.53125,67.3125,89.92708333,75.17708333
Aquidauana,SOUTH AMERICA,0.42,-20.42063492,-55.83333333,24.24444625,12.23263068,64.13266681,251.5252438,32.67895054,13.60500045,19.07395099,26.67418961,20.8396343,26.67418961,20.8396343,1443.095238,227.6666667,31.04761905,52.08061781,612.2380952,131.047619,612.2380952,131.047619
Ar Ramadi,ASIA,0.72,33.48148148,43.25694444,22.72304225,15.07450542,36.86265479,937.6433411,43.87602737,2.985944466,40.89008204,10.84756676,33.73207426,33.73207426,10.84756676,116.8055556,22,0,85.45798471,60.66666667,0,0,60.66666667
Ar Raqqah,ASIA,0.55,35.9969697,38.97272727,19.31648799,13.43806681,36.53983404,916.1021851,38.84752787,2.072218123,36.77531003,9.495248621,30.32675486,30.32675486,7.946730345,166.4545455,32.01818182,0,80.04097637,87.69090909,1,1,81.09090909
Ar Rutbah,ASIA,0.1,33.08333333,40.25,19.16320801,14.72141647,39.96366882,844.5604248,38.14099884,1.30400002,36.83699799,10.31383324,29.0858326,29.0858326,8.63983345,117,21,0,75.58546448,52,0,0,50
Aracaju,SOUTH AMERICA,2.43,-10.86076818,-37.14300412,25.68549294,6.938092548,69.134017,114.0220661,30.62621272,20.58901451,10.03719821,25.50593272,26.48679696,26.92171054,24.20155623,1534.226337,274.2098766,41.76131688,61.6263269,713.0987655,147.7530864,258.6584362,488.3827161
Aracati,SOUTH AMERICA,0.06,-4.5,-37.83333333,26.86429214,9.215416908,79.4295578,61.64476395,32.63199997,21.03000069,11.60199928,26.69666672,27.39316559,27.61633301,26.12333298,1091,276,5,106.2214127,686,17,122,270
Aracatuba,SOUTH AMERICA,0.79,-21.16350211,-50.48734177,22.31682082,12.13277394,63.63743654,254.891876,30.43775868,11.37226584,19.06549294,24.91369701,19.00636195,24.91369701,18.82313067,1210.810127,220.5443038,17.96202532,68.47601463,583.3670886,81.15189873,583.3670886,109.9620253
Aracuai,SOUTH AMERICA,0.13,-16.83333333,-42.08333333,24.03450012,13.50349998,69.27713776,170.9922638,32.82300186,13.33100033,19.49200058,25.07766724,21.59049988,25.76049995,21.59049988,842,167,3.999999999,89.42501068,474,16,324,16
Arad,EUROPE,0.86,46.22674419,21.27422481,10.50533816,10.74182934,33.42100157,817.8914341,27.65415161,-4.486965157,32.1411171,18.79152522,1.818573672,20.30987243,0.199116245,579.627907,78.56976744,31,28.24917084,202.6744186,99.29069767,194.5813953,112.4767442
Araguaina,SOUTH AMERICA,0.17,-7.166666667,-48.25,25.70462418,11.79174995,69.94335175,57.81168747,34.66400146,17.80500031,16.85900116,25.08950043,25.93766785,26.52999878,25.08950043,1778,277,15,67.20335388,821,73,245,821
Araguari,SOUTH AMERICA,0.5,-18.6,-48.24,21.51153,11.77372704,70.22442413,149.5279358,28.7675206,12.00167992,16.76584007,22.52121361,19.61713303,22.60727318,19.21071381,1572.28,331.72,9.64,86.39805756,831.76,32.16,476.48,44.96
Arak,ASIA,0.93,34.12275986,49.65412186,13.04021665,13.4805859,33.09790564,975.2296713,34.69689211,-6.03513989,40.73203146,2.298093119,24.31096924,24.9869186,0.667433693,274.0537634,49.27956989,0,77.60985106,128.0215054,2,5.462365592,119.827957
Aral,ASIA,0.23,46.83333333,61.61594203,7.546943872,11.01996729,21.87519579,1458.549454,33.87778423,-16.49865267,50.37643499,-0.726188387,22.65067366,25.04017448,-10.59973194,157.9130435,22.82608696,7.608695653,34.82296703,54.65217392,23.21739131,26.82608696,34.60869565
Aranyaprathet,ASIA,0.11,13.75,102.4621212,27.7112621,9.884023059,60.44982945,150.1115861,35.50499933,19.15454518,16.35045416,27.88030347,26.19989447,29.49227281,25.63033329,1347.636364,249.9090909,6,76.25834864,636.1818182,33.90909091,301.2727273,51.45454546
Arapiraca,SOUTH AMERICA,0.22,-9.693181818,-36.70833333,23.91956633,9.095670527,68.24176372,167.5326399,30.81709055,17.48836327,13.32872729,22.32944731,24.85028787,25.60431004,21.64882556,762.8636363,134.9090909,16.63636364,68.70683115,381.7272727,61.31818182,102.6363636,316.0454545
Arapongas,SOUTH AMERICA,0.55,-23.36060606,-51.48636364,18.94748823,12.6101911,64.79681743,266.6516624,27.80623616,8.345199966,19.46103609,21.85570259,16.50363929,21.85570259,15.41833309,1490.781818,191.0909091,55.81818182,34.65006811,535.8909091,217.8909091,535.8909091,268.3272727
Arar,ASIA,0.33,31,40.99494949,22.60644855,14.68760375,37.37637364,940.2613007,42.54845382,3.251999942,39.29645376,12.176606,33.1888222,33.55190497,10.74602075,84.93939394,17.93939394,0,80.53865745,38.93939394,0,2,37.93939394
Ararangua,SOUTH AMERICA,0.4,-28.90625,-49.53333333,19.36775756,9.857480764,51.02629356,338.4901878,28.53647504,9.218325114,19.31815042,23.48969584,15.88216271,23.48969584,15.20876265,1315.6,149.725,82.15,20.9053627,415.95,261.5,415.95,280.9
Ararat,AUSTRALIA,0.15,-37.25,142.9055556,13.03170293,11.72501691,48.86036351,429.2325623,27.24946683,3.25266676,23.9967996,8.533744366,18.39752172,18.39752172,7.902711073,628.7333335,69.80000002,33,26.82430001,204.4000001,106.4,106.4,197.4000001
Arauca,SOUTH AMERICA,0.12,7.097222222,-70.80555556,27.03480498,9.317082564,72.68888219,85.20947774,34.43066597,21.61266677,12.8179992,26.02241643,27.45688883,28.18952688,25.99844392,1951.666667,330.8333333,11.83333333,70.12832006,906.6666666,62.33333334,217,903.8333333
Araxa,SOUTH AMERICA,0.38,-19.55482456,-47,19.91930184,11.02320787,66.79790457,185.1107627,26.68034197,10.17855268,16.50178929,21.40658755,17.31896932,21.63535073,17.31896932,1634.473684,348.3421053,14,83.27909048,863.9473684,46.97368421,699.9210526,46.97368421
Arba Minch,AFRICA,0.36,6.083333333,37.53472222,22.65455945,13.03647924,75.08615049,84.97525533,31.60308266,14.24274977,17.36033328,23.24184767,23.23241631,23.81686147,21.70012585,868.5833335,135.5833334,24.58333333,51.33549658,336.75,84.25000001,128.4166667,184.25
Arcata,NORTH AMERICA,0.3,40.91666667,-124.1194444,11.97104715,10.19342581,57.01917623,289.6709829,21.72704252,3.851888045,17.87515386,8.989882978,15.28476206,15.66364943,8.601017221,1160.7,196.7666667,5,77.11557083,564.9,36.56666667,47.13333333,538.2
Archangel,EUROPE,3.19,64.59665622,40.54388715,1.069903696,8.198448311,21.36426553,1024.263315,21.20264209,-17.17111606,38.37375764,10.70826386,-9.796937405,14.01794307,-11.58193896,537.9090909,64.52351097,24.48589342,32.85209566,185.200627,79.81504702,179.9623824,94.17554859
Arcoverde,SOUTH AMERICA,0.14,-8.375,-37.08333333,21.65356255,9.693624973,70.81457519,145.6180039,28.90549946,15.21700001,13.68849945,22.10925007,21.90100002,23.21783352,19.77466679,747,133.5,15,61.51611709,331.5,59,105,195
Arctic Bay,NORTH AMERICA,0.01,73.08333333,-85.25,-13.66295433,5.486212254,13.08109665,1358.81665,8.71454525,-33.22545624,41.94000244,2.519393921,-29.28848457,3.670302868,-29.28848457,207,37,3,70.56396484,99,13,93,13
Ardabil,ASIA,0.79,38.29852321,48.24367089,9.312847089,12.24814542,36.09113597,751.7682951,26.89063292,-7.046974696,33.93760676,8.765780328,17.83988016,17.98613268,-0.50012233,356.9493671,52.65822785,10,44.8318916,143.5822785,37.24050633,45.82278481,79.12658227
Ardmore,NORTH AMERICA,0.39,34.22863248,-97.16880342,16.9710734,12.76962549,35.15668771,855.0920332,34.56317794,-1.758794861,36.32197307,21.19849562,6.115384676,27.25972151,6.115384676,949.1282051,128.2307692,42.97435897,34.30251831,316.7179487,152.1538462,223.8974359,152.1538462
Arecibo,SOUTH AMERICA,0.87,18.48563218,-66.8045977,25.06417053,12.42883769,77.92147371,129.9481764,32.66467546,16.7139056,15.95076986,25.9090602,23.39808427,26.46361305,23.39808427,1651.448276,185.6321839,71.45977012,28.28416356,534.9655173,251.3218391,452.4367817,251.3218391
Arequipa,SOUTH AMERICA,1.65,-16.35909091,-71.56818182,14.53586489,14.43408505,84.78291423,64.71812695,22.5405697,5.501824228,17.03874617,15.09231604,13.82217905,15.14901695,13.59459881,79.80606059,26.51515151,0,135.7475522,70.83030302,0.024242424,54.57575757,1.733333333
Arezzo,EUROPE,0.62,43.50268817,11.82258065,13.38425252,9.874064446,35.45746465,664.1812035,29.15451653,1.306806441,27.84770947,9.782209673,21.73984891,21.73984891,5.562306266,843.6451613,101.9677419,38.03225806,25.48572996,278.0322581,154.9354839,154.9354839,198.5806452
Argentia,NORTH AMERICA,0.05,47.33333333,-54,4.914614677,7.278731346,26.28975678,706.9838257,19.03731346,-8.649253845,27.68656731,7.909204006,5.739800924,14.04005051,-3.541790962,1321,137,88.99999999,12.22004223,375,284,325,340
Arica,SOUTH AMERICA,0.41,-18.42682927,-70.33333333,18.50143795,6.052496166,46.04940377,269.4178184,25.7815983,12.6461565,13.1354418,15.43507755,21.98715056,21.98715056,15.41288543,1.87804878,1,0,32.54505553,1.87804878,0,0,1.87804878
Arjona,SOUTH AMERICA,0.15,10.31111111,-75.41111111,27.53397255,10.25126661,78.88610433,40.74537328,34.10046717,21.10373357,12.9967336,27.40164426,27.49609985,27.98212331,27.02802188,1282.533333,219.5333333,14.2,64.72130788,532.1333333,46.26666667,243.7333333,415.6
Armavir,EUROPE,0.94,45.04166667,41.07535461,10.78141755,10.58600192,30.39748251,905.7803325,29.24622392,-5.578542583,34.82476588,19.76146105,0.720647184,21.68573377,-0.635058494,621.2340426,84.4893617,29.09574468,30.24866981,220.2446809,98.90425532,205.8723404,109.5
Armenia,SOUTH AMERICA,0.42,4.583333333,-75.72420635,19.84569018,9.856504418,90.03689684,36.34299224,25.42895204,14.48326209,10.94568995,19.36549932,19.99887362,20.17155988,19.36549932,2069.904762,268.3333333,88.42857144,33.27155685,679.1904762,343.7857143,437.6666666,679.1904762
Armidale,AUSTRALIA,0.28,-30.47916667,151.6160714,13.37925114,12.93140752,49.48528058,496.2476164,26.48307133,0.352357153,26.13071442,18.60647624,6.995006084,19.29394061,6.995006084,784.3214286,117.5714286,39.67857144,37.81079074,299.9642857,127.6071429,299,127.6071429
Arqalyq,ASIA,0.34,50.30637255,66.8627451,2.94087377,11.80583581,23.8941596,1420.186818,28.50711766,-20.90185334,49.40897078,18.02686293,-10.48997558,19.65506408,-14.65343127,241.5294118,26.79411765,12.32352941,19.50827677,73.17647058,45.20588236,72.14705882,54.32352941
Arras,EUROPE,0.91,50.33333333,2.731684982,10.05548457,7.646081474,34.59855945,533.3309319,22.80560416,0.706637371,22.09896702,7.201857106,6.178256333,16.68760551,3.743659302,695.6153846,68,44,12.56397441,197.1868132,145.7472527,175.6813187,164.967033
Arrecife,AFRICA,0.35,29.00952381,-13.60714286,20.14280445,8.732405881,56.02771672,239.1843702,28.22398927,12.63751826,15.58647101,17.32165026,22.60462363,23.24280374,17.32165026,127.3428571,28.31428571,0,89.24631762,74.85714286,1.114285714,4.4,74.85714286
Arroyos y Esteros,SOUTH AMERICA,0.02,-25,-57.16666667,22.92300034,10.89866638,53.41960144,363.9650269,32.91799927,12.51599979,20.40200043,26.48799896,18.39616585,27.15250015,18.39616585,1446,179,48,36.59712982,493,188,492,188
Arsenyev,ASIA,0.32,44.19010417,133.2447917,2.998481773,14.83819246,26.39992332,1478.135376,27.72337514,-28.4862811,56.20965815,18.56956238,-16.81742656,19.7988804,-16.81742656,712.40625,122.6875,13.34375,65.0022862,339.40625,49.6875,309.28125,49.6875
Artemisa,NORTH AMERICA,0.23,22.85144928,-82.81884058,24.80865445,9.391655922,61.24910487,218.2941278,31.94982587,16.6172181,15.33260777,27.19205757,21.94047803,27.19828199,21.94047803,1538.869565,221.4347826,53.2173913,51.68315954,616.3913044,177.173913,598,177.173913
Artemovsk,ASIA,0.13,54.41666667,93.41666667,-0.53745836,11.8977499,26.11446571,1239.040405,22.94199944,-22.61800003,45.55999756,14.64449978,-13.42266655,14.64449978,-16.04083252,575,99,14,58.49067688,263,51,263,60
Artemovskiy,ASIA,0.35,57.41190476,61.84285714,2.313007239,9.958314705,23.54500182,1208.046376,23.55291492,-18.74140064,42.29431403,16.94161415,-11.03968571,16.94161415,-13.15850026,486.3714286,85.94285714,14.02857143,56.66669573,223.8,53,223.8,63.82857143
Artigas,SOUTH AMERICA,0.1,-30.375,-56.5,19.11072922,11.87720823,48.64319038,459.5589294,31.97099876,7.553999901,24.41699886,24.26699924,13.55791664,24.75849915,13.55791664,1477,165.5,88,18.62142086,451.5,281,419.5,281
Arua,AFRICA,7.35,3.173809524,30.83798186,23.87744601,11.19262096,74.09711056,118.808763,32.38508823,17.276641,15.10844722,22.82961789,25.08165232,25.45696481,22.45112769,1430.440816,202.2462585,18.2952381,52.69289429,589.4789116,92.8707483,144.2911565,548.1714286
Arusha,AFRICA,0.34,-3.333333333,36.64705882,19.543419,10.97242675,68.13486167,170.2230521,28.29517712,12.19352986,16.10164749,20.26359805,17.5078235,21.24952047,17.15979486,876.5882353,237.8235294,8.294117645,91.98831985,483.8823529,26.11764705,272.7058824,34.4117647
Arvayheer,ASIA,0.2,46.33333333,102.75,0.96966666,12.66800022,29.66397285,1152.026489,21.73600006,-20.96899986,42.70500183,14.78199959,-13.38199997,14.78199959,-13.38199997,255,78,1,119.3437119,187,4.999999998,187,4.999999998
Arviat,NORTH AMERICA,0.01,61.16666667,-94.08333333,-9.037069321,7.520689964,15.47686672,1511.180176,15.75862026,-32.8344841,48.59310532,8.986782074,-26.67068863,9.16379261,-27.16896439,290,57,7,61.15576172,139,29,124,35
Arxan,ASIA,0.09,47.22222222,119.9166667,-2.896680514,14.00252787,25.97812335,1496.563192,22.51266734,-31.38899994,53.901666,14.52233378,-22.24327787,14.52233378,-22.24327787,442.6666667,127.3333333,5,104.061086,286.6666667,17.66666667,286.6666667,17.66666667
Arys,ASIA,0.32,42.47395833,68.75,13.92061996,13.38935411,29.72611833,1161.211273,38.00837517,-7.033937365,45.04231381,7.818791628,26.31300998,28.24467707,-0.610052057,316.8125,45.3125,2,62.38541222,125.5625,11,15.3125,121.25
Arzamas,EUROPE,0.92,55.44836957,43.7798913,3.429959694,8.473785359,21.50422268,1117.144985,23.48573921,-15.91173905,39.39747686,16.75730297,-9.715003999,16.75730297,-10.63148014,505.6956522,75.18478261,22.38043478,37.76023575,189.4782609,73.30434782,189.4782609,83.28260869
As Salt,ASIA,0.27,32.08333333,35.66666667,16.78199959,10.36599922,39.71038818,632.5244141,30.23699951,4.132999897,26.10400009,8.703166962,23.75883293,23.81083298,8.703166962,398,93,0,109.716774,255,0,0,255
As Samawah,ASIA,0.71,31.35798122,45.2370892,25.20753605,14.39336727,38.25835977,915.8991854,44.77650736,7.15545064,37.62105679,15.01130484,35.64032466,35.64032466,13.2401429,113.3098592,25.61971831,0,95.46361133,68.12676056,0,0,66.43661972
As Sulaymaniyah,ASIA,0.68,35.59313725,45.38235294,18.49134305,12.56598515,31.68555507,1009.553971,39.85796973,0.200323527,39.65764685,7.418083458,30.85545613,30.85545613,6.145749991,750.117647,140.117647,0,94.5766514,409.0882353,0,0,393.7647059
As Sulayyil,ASIA,0.09,20.5,45.5,28.96495819,15.28908348,45.01820755,709.826416,44.93899918,10.97700024,33.96199799,25.60333252,37.01816559,37.01816559,19.84083366,86,34,0,124.4183044,61,3,3,18
As Suwayda,ASIA,0.34,32.75,36.5245098,15.8246134,14.05203875,43.21767448,714.1825956,32.71876515,0.206529423,32.51223553,6.662813778,23.81039137,23.81039137,6.662813778,305.4705882,66.35294117,0,100.9119142,188.0588235,0,0,188.0588235
Asahikawa,ASIA,1.87,43.82263815,142.3453654,6.44524624,9.46270934,24.6961004,1069.805282,25.4964058,-12.81528361,38.31168949,15.17848006,-1.758344098,19.1516025,-6.851483898,1059.326203,140.9893048,45.83957219,36.02894604,393.5989305,158.2566845,316.6363636,195.0695187
Asbest,ASIA,0.69,57.05797101,61.42995169,2.158809157,9.185077225,22.09932734,1180.867849,23.36107312,-18.20240565,41.56347778,16.61018327,-10.46210617,16.61018327,-12.67921023,496.9855072,88.28985507,15,56.18309657,227.8985507,55.21739131,227.8985507,65.21739131
Ascension,NORTH AMERICA,0.1,31.15833333,-108.025,16.82563705,18.06980877,48.8117691,732.380957,35.42799988,-1.590799975,37.01880073,24.83013267,16.45508347,25.87138348,7.876700306,290.4,66.4,4,84.31150131,172.6,19.8,136.3,42.7
Asela,AFRICA,0.3,8,39.08333333,15.18804169,13.38691616,75.92398071,86.78868103,23.47699928,5.84499979,17.63199997,14.875,14.1619997,16.34149933,14.1619997,995,180,8,68.47528076,483,49,267,49
Ash Shatrah,ASIA,0.39,31.45940171,46.12393162,24.17977719,14.71873946,39.34815695,890.3635911,43.34989714,5.944563988,37.40533301,12.75172209,34.41418359,34.41418359,12.75172209,126.7435897,28.71794872,0,96.8271813,79.25641025,0,0,79.25641025
Ash Shihr,ASIA,0.13,14.83333333,49.58333333,27.50604439,8.472161293,49.39561081,265.9407043,35.20439529,18.05274773,17.15164757,26.26062202,27.67820549,30.3476181,24.04688644,27,5.999999999,0,61.7130394,13,2.999999999,7.999999999,5
Asha,EUROPE,0.53,55.04245283,57.21383648,2.850405666,9.657707629,23.47432205,1174.298596,23.76758496,-17.36888709,41.13647188,16.86358549,-4.046386763,16.86358549,-11.79405644,581.3962264,79.03773585,24.35849056,36.11680826,212.6792453,83.16981132,212.6792453,102.2264151
Ashburton1,POLYNESIA,0.183065006,-43.83333333,171.7303963,11.31724559,10.90661342,49.50921616,402.7376835,22.69142499,0.662066638,22.02935885,11.69933813,11.32198563,16.09355594,6.154103614,698.4704887,68.23524434,45.47048868,10.04867087,187.9409774,160.6467104,170.2352443,179.6475566
Ashburton2,POLYNESIA,0.006934994,-43.83333333,171.6666667,11.22945786,10.82191658,49.3115654,401.9651794,22.48800087,0.541999996,21.94600105,11.62783337,11.24283314,15.98266602,6.064499855,700,69,47,10.52118778,191,166,171,172
Asheville,NORTH AMERICA,2.91,35.60595647,-82.604811,12.73257394,13.21024822,40.30118689,747.2186105,28.95551893,-3.823199302,32.77871825,10.3077937,10.01829484,21.79075804,3.327035418,1254.453608,127.5017182,83.90034364,11.90161271,340.3573883,274.1821306,335.7938144,303.2061856
Ashgabat,ASIA,1.89,37.98500882,58.32275132,16.55453167,12.2082092,30.67255573,1029.924467,38.06867196,-1.733137574,39.80181017,10.34939504,27.73526148,29.42861002,3.86391093,242.5396825,39.66666667,2.306878307,61.7470168,105.4814815,10.92063492,13.79365079,83.07936508
Asino,ASIA,0.24,57.02777778,86.08680556,0.463317716,10.45530911,22.04561599,1348.802719,25.17354163,-22.25245817,47.42600091,16.9107914,-13.93204157,16.9107914,-16.39113847,472.0833333,69.625,14.95833333,45.72724438,194.2916667,55.25,194.2916667,69.29166667
Asmara,AFRICA,1.09,15.3646789,38.89220183,18.2724759,13.97558344,70.6204076,178.9555839,28.41006435,8.62835793,19.78170664,19.01675957,16.02168341,20.3612137,15.95838534,492.9174312,159.6238532,3.284403664,128.6017937,344.2844037,13.2477064,97.97247706,22.04587154
Asosa,AFRICA,0.1,10.08333333,34.5,22.18537521,12.84141636,68.31630707,163.5898132,32.81999969,14.02299976,18.79700089,20.58183289,23.13883209,24.4659996,20.58183289,1221,236,1,92.29860687,667,6,80,667
Assab,AFRICA,0.13,13.06410256,42.66666667,30.77932372,9.593498597,52.71788641,311.5413208,39.92968867,21.73816886,18.19151981,34.36438722,32.22332206,34.50610733,26.84876633,48.23076923,6,0,38.81734085,17.23076923,6,12,13.76923077
Assis,SOUTH AMERICA,0.81,-22.60185185,-50.46193416,20.88963782,12.21942475,62.86533709,268.934594,29.53634589,10.09900005,19.43734496,23.7636213,18.6771171,23.7636213,17.25054762,1224.469136,194.8765432,38.90123457,50.883427,521.7037037,144.4320988,521.7037037,168.037037
Astana,ASIA,1.93,51.20725389,71.39075993,2.907718918,10.91977792,22.99348443,1405.64204,27.52195814,-19.96781845,47.48977809,17.99051657,-13.08145803,19.62844489,-14.33706283,296.2590674,46.04145078,13.78238342,37.14096443,114.2901554,45.09326425,108.880829,49.98445596
Asti,EUROPE,0.41,44.93292683,8.168699187,13.07189339,8.500717605,29.79436679,736.1934561,28.13626824,-0.394780489,28.53104889,12.64915415,4.01296333,22.19915511,4.01296333,639.9512195,79.51219512,30.58536585,27.69361003,199.2439024,119.8292683,135.1951219,119.8292683
Astoria,NORTH AMERICA,0.15,46.25,-123.8777778,10.47563299,8.973364131,46.7215388,399.0256714,21.2342584,2.029073986,19.20518443,6.361975289,15.24499944,15.69021587,5.931543382,1977.733333,312.4666667,36.46666667,62.32102,904,146.4,155.3333333,838.0666666
Astrakhan,EUROPE,2.37,46.39345992,47.98030942,10.12053499,9.625864661,24.27499428,1125.33646,31.19539704,-8.455755387,39.65115274,22.04744226,-3.379023287,23.89063658,-3.723457859,211.4303797,23.15611814,11,18.68224571,66.20675106,41,63.11814346,41
Asuncion,SOUTH AMERICA,8.4,-25.27638889,-57.5421627,22.66253058,10.70019548,52.1762525,365.2201831,32.8948638,12.3868322,20.50803178,26.28489501,18.10792638,26.97286656,18.10792638,1422.644048,161.7928571,46.20357143,33.52407801,467.7619048,191.2011905,451.7023809,191.2011905
Aswan,AFRICA,0.73,24.12214612,32.84246575,26.42801935,15.41043918,47.3933477,679.845122,41.73556168,9.220835947,32.51472499,18.71555503,18.71555503,33.73549035,17.28981935,0,0,0,0,0,0,0,0
Asyut,AFRICA,8.010000001,27.48793175,30.90699126,22.23171228,14.28211991,46.07381818,637.1872866,37.05190517,6.056133563,30.99577164,15.10051113,24.62111982,29.21921862,13.71780415,1.971285893,1,0,31.38438404,1.513108614,0,0,1.458177278
At Bashy,ASIA,0.27,41.20679012,75.75617284,3.395796289,12.25034555,27.22714113,1191.814132,24.16259214,-20.8278892,44.99048233,14.27630852,-9.875407255,16.04937603,-13.06004969,200.5925926,35.62962963,6,61.52862464,99.44444444,20.40740741,82.44444444,21.33333333
At Taif,ASIA,1.05,21.33650794,40.38492063,21.58983029,13.35431649,50.51938513,510.5930414,34.31657108,7.883371489,26.43319938,21.44586343,24.05665873,27.58656324,15.19973328,145.1333333,31.34285714,3.180952382,62.86995602,52.88571429,24.07619048,24.36190476,24.79047619
Atakpame,AFRICA,0.29,7.583333333,1.083333333,26.57891655,10.25899982,72.29229736,136.3306274,34.79700089,20.6060009,14.19099998,24.75366592,27.16399956,28.17300034,24.75366592,1278,190,11,63.37695313,513,54,253,513
Atamyrat,ASIA,0.27,37.86111111,65.16666667,16.84605598,14.21161111,35.07126745,990.2325033,38.87333298,-1.642,40.51533127,6.509944439,29.20083237,29.20083237,4.734388669,169,40.66666667,0,90.85839081,97.33333333,1,1,78.66666667
Atar,AFRICA,0.11,20.58333333,-13.08333333,28.67241669,14.01549911,50.01248932,528.8111572,41.9469986,13.92300034,28.02399826,34.46183395,28.08316612,34.6554985,21.75333405,60,22,0,123.0914917,46,2,26,6
Atasu,ASIA,0.25,48.75,71.59333333,4.091283455,12.51611343,25.67649277,1378.203521,29.47240006,-19.27304062,48.74544235,18.78548721,-11.68543343,20.52701347,-13.0679533,230.24,27,12,22.66475021,74.12,45,66.12,52
Atbara,AFRICA,0.38,17.76096491,33.92763158,29.86501483,15.38593832,53.28372463,490.710287,42.92444621,14.04905239,28.87539452,34.0183501,24.18360449,34.55920059,22.98302143,43.73684211,20.86842105,0,141.5708947,38.73684211,0,15.86842105,0
Atbasar,ASIA,0.36,51.84259259,68.31712963,1.992347141,11.68111613,23.86508507,1442.832336,27.479806,-21.46669451,48.94650088,17.57880587,-7.561064906,19.04757913,-15.7171718,295.7222222,43.11111111,13,31.20378113,104.5277778,48,104.5277778,61
Athabasca,NORTH AMERICA,0.04,54.75,-113.3333333,1.667750001,11.86616707,26.98389244,1188.113281,22.36400032,-21.61100006,43.97499847,15.18000031,-4.605000019,15.18000031,-13.84483337,484,96,18,68.7735672,252,59,252,66
Athens1,NORTH AMERICA,1.86,33.97983871,-83.43458781,16.48636308,12.76712732,39.35605016,748.0434879,32.59973124,0.159532261,32.44019785,8.649296632,16.99059021,25.56082612,7.046295607,1264.204301,139.8602151,83.18817204,15.85111092,379.2795699,258.9247312,312.7688172,343.483871
Athens2,EUROPE,7.52,38.06948138,23.68927305,16.85884795,8.42901988,32.10786645,678.6104681,31.57545038,5.331630076,26.24381998,10.6640451,25.53565396,25.53565396,9.152345864,456.2287234,76.91356383,7.46143617,64.96532546,198.3869681,25.98271276,25.98271276,191.8670213
Atherton,AUSTRALIA,0.08,-17.25,145.4166667,20.07829094,9.789416313,54.55537415,294.7061768,28.52700043,10.58300018,17.94400024,22.861166,18.74083328,23.22966766,16.05233383,2074,415,34,74.74919891,1072,124,903,223
Ati,AFRICA,0.04,13.25,18.3125,29.35040665,14.85960436,59.3626461,268.5221252,41.18950081,16.15750074,25.03200007,28.36366653,26.32183409,32.9017086,26.32183409,492,171.25,0,141.8950348,395,0,80,0
Atikokan,NORTH AMERICA,0.16,48.83333333,-91.66666667,2.259458303,11.98175049,24.85015297,1279.214233,24.8579998,-23.3579998,48.2159996,17.10566711,-14.56533337,17.10566711,-14.56533337,772,104,25,45.88279343,304,94,304,94
Atkarsk,EUROPE,0.21,51.91666667,44.96031746,5.190638678,9.448531832,23.63777815,1159.167079,26.25309554,-13.71890477,39.9719994,19.04742913,-2.308039711,19.04742913,-9.077571415,464.4285714,54.47619048,22,25.15799123,155.4285714,79,155.4285714,94.47619048
Atlanta,NORTH AMERICA,57.33,33.90447119,-84.3893395,16.16623565,11.88180418,37.48522602,750.5551809,31.71036153,0.015557127,31.69480443,8.272479777,17.79431081,25.21486121,6.642611601,1329.241584,146.4685156,85.71916972,16.25790361,400.1118088,274.8581894,318.5567766,367.6727717
Atlantic City,NORTH AMERICA,0.44,39.40719697,-74.50757576,12.53132612,9.413017685,29.4606009,839.1964208,28.61157092,-3.33815502,31.94972662,22.54875617,14.39842326,22.79258199,2.293136537,1054.772727,111.9318182,73.04545455,12.69154839,283.7272727,240.7954545,277.7727273,255.6818182
Atlixco,NORTH AMERICA,0.36,18.9537037,-98.48148148,18.74907573,17.1079695,72.09195879,165.0666029,30.40855588,6.678305601,23.73025015,19.67685244,16.58793563,20.78515731,16.58793563,860.5555555,176.6111111,3.749999999,99.8936562,497.2777778,19.61111111,272.9444444,19.61111111
Atoyac,NORTH AMERICA,0.09,17.25,-100.5,27.02300072,11.16116714,79.62023926,70.7714386,33.63100052,19.61299896,14.01800156,27.44083405,26.57333374,27.82733345,26.08650017,1030,263,1,116.1626511,652,6,421,19
Atyrau,ASIA,0.87,47.14559387,51.87260536,9.473123561,10.40588499,23.14480354,1286.524602,33.06637972,-11.89310339,44.95948243,23.23247136,-5.074465543,25.05341012,-6.464245084,153.1264368,16.74712644,9,17.76776467,46.68965517,31.94252874,43.10344827,33
Auburn,NORTH AMERICA,1.14,32.6622807,-85.47295322,17.23456845,12.959193,41.43257325,713.2844212,32.46830756,1.190482441,31.27782465,9.673761669,22.44989005,25.77714286,8.194063045,1438.192982,169.8947368,75.63157895,22.54111703,442.5701754,270.1842105,351.0263158,409.3157895
Auckland,POLYNESIA,5.85,-36.88019943,174.7539886,15.15684351,8.059650778,46.25804975,335.0591607,24.1171133,6.700299595,17.41681362,11.07446323,19.30109002,19.32087091,11.07446323,1362.962393,145.2068376,88.15213675,15.67255438,417.5504274,288.8102564,289.2102564,417.5504274
Augsburg,EUROPE,2.68,48.41262438,10.84577114,8.406813899,8.569217475,31.97601868,692.4390744,23.14238463,-3.65461192,26.79699607,17.02570904,1.25972577,17.02570904,0.014101371,867.2238806,107.3246269,47.14925373,29.67601608,308.488806,145.5932836,308.488806,154.7537313
Augusta1,NORTH AMERICA,4.51,33.50776053,-82.09478936,17.56923762,14.37210303,42.84018642,737.576529,34.10742985,0.559279376,33.54815034,10.24712526,18.15205664,26.49146451,8.264610513,1170.439024,119.9268293,67.70731707,17.16071568,340.9711752,222.6097561,329.45898,314.3968958
Augusta2,NORTH AMERICA,0.41,44.3495935,-69.82926829,7.094826361,11.22079017,28.29110834,1006.938713,26.6618289,-12.99968275,39.66151112,2.526780419,-5.444881951,19.29462182,-5.747873748,1101.853659,106.902439,70.85365854,10.32924399,303.7560976,250.6341463,264.6341463,251.2682927
Aurangabad1,ASIA,25.14305501,24.78526547,84.35799959,26.14543483,11.94484479,38.4887968,578.3058243,41.25810123,10.22296125,31.03514002,29.00944609,26.20783788,32.68638684,18.31670807,1042.553076,304.4720307,3.698424528,132.970928,802.6813231,24.33964595,143.7097666,34.98713273
Aurangabad2,ASIA,4.46,19.91573244,75.26195815,25.75521178,13.47024104,49.44307525,362.8569499,39.74060301,12.49699101,27.24361199,25.34772701,24.13580964,30.60358085,21.47686728,708.2556054,161.4551569,1.717488789,111.5504307,463.0896861,8.293721972,149.3452915,34.23766816
Aurora1,NORTH AMERICA,5.402429107,39.70252368,-104.8716727,9.957076902,15.93358463,40.13785925,864.020968,31.09508518,-8.601831005,39.69691623,18.43328008,-0.108297651,21.08595653,-0.108297651,410.5605556,63.25066839,11.85398068,48.17243001,164.7003811,39.49352033,146.3960035,39.49352033
Aurora2,NORTH AMERICA,21.16853481,41.88320298,-88.23741326,9.555887614,11.34603197,28.2146797,1050.266061,29.46124691,-10.75116734,40.21241448,21.79580303,-4.032265467,22.06233971,-4.032265467,935.5088402,105.8889519,34.99796394,31.48009473,308.2603618,133.4090684,308.0384106,133.4090684
Austin,NORTH AMERICA,10.44,30.40205939,-97.79238506,19.6047523,12.26693494,38.63355873,714.4850552,34.87880528,3.131058392,31.74774702,23.2751953,11.68132679,28.04082363,10.45391995,839.2068966,119.8084291,47.53831418,33.31284288,284.7471264,154.9185824,196.7595785,155.6503831
Autlan,NORTH AMERICA,0.17,19.83333333,-104.4166667,21.88999939,16.48399925,67.16375732,215.5402069,33.44599914,8.902999878,24.54299927,23.62833405,20.57933426,24.06033325,18.94233322,1026,239,3,110.3365097,674,19,425,53
Auxerre,EUROPE,0.52,47.85416667,3.516025641,10.64328214,9.079493578,35.98775842,602.6469727,25.10463498,-0.125096152,25.22973042,10.97542623,6.562782187,18.26308658,3.417397462,681.2307692,66.28846154,45.84615384,11.52001254,185.4230769,147.6730769,170.6346154,165.0961538
Avare,SOUTH AMERICA,0.54,-23.0617284,-48.97067901,19.66237209,12.44062364,65.81872869,234.5334136,28.29085216,9.389444581,18.9014077,22.31790465,16.76406479,22.31790465,16.6909943,1242.111111,198.4259259,34.59259259,56.6684388,555.2777778,125.8518519,555.2777778,149.7407407
Aweil,AFRICA,0.08,8.833333333,27.33333333,27.28370857,13.50858307,62.38953781,186.0982208,38.54000092,16.88800049,21.65200043,26.09950066,26.16166687,30.04283333,25.56083298,863,206,0,105.4541092,536,0,131,4
Awka,AFRICA,7.733746498,6.170901211,7.029988156,26.59747259,8.755028713,71.94527294,116.3920373,33.4286407,21.25328098,12.17535972,25.15595831,27.155688,28.14310354,25.15595831,1822.792006,295.2273144,7.962589185,71.07415852,776.5089964,51.98125514,257.860184,776.5089964
Ayacucho,SOUTH AMERICA,0.31,-13.12096774,-74.25,15.60143335,14.504199,80.26553443,74.19209733,24.33741932,6.264903252,18.07251586,15.57946297,14.69225311,16.54108041,14.6829299,604.0967742,122.3548387,6.451612904,83.32199417,340.2903226,25.16129032,161.8064516,26.80645161
Ayakoz,ASIA,0.28,48,80.41071429,3.66933935,13.10327387,26.51440334,1376.642543,28.79750034,-20.62192781,49.41942651,17.98186847,-11.9387972,19.88571439,-13.74115487,318.2142857,38,17,28.05918312,107.0714286,59.07142857,89,65.07142857
Ayapel,SOUTH AMERICA,0.09,8.342592593,-75.16666667,27.79740249,10.13323106,83.01094225,46.75885985,34.40277651,22.19577853,12.20699798,27.38098081,28.25942569,28.49038908,27.3112776,2489.777777,362.8888888,31.33333334,60.61872355,1003.555555,121,265.3333333,849.6666665
Ayaviri,SOUTH AMERICA,0.05,-14.83333333,-70.66666667,7.177916527,18.32233238,69.80202484,199.9228973,18.13199997,-8.116999626,26.24900055,8.877333641,4.237166882,8.92666626,4.237166882,749,165,1,93.02079773,423,8,355,8
Aydin,ASIA,1.59,37.90041929,27.76677149,16.99785453,12.20629879,39.36475286,713.7830081,34.36427024,3.353735875,31.01053449,8.554621709,25.83091225,25.97325296,8.554621709,692.1572327,139.6666667,5.805031446,79.77140161,369.6289308,27.8490566,28.35849056,369.6289308
Ayorou,AFRICA,0.03,14.75,0.888888889,29.09316635,14.62422212,60.71473312,279.1252645,40.61833191,16.53133392,24.08699798,29.41750081,26.36366717,32.37805557,25.23788897,292.3333334,115,0,150.2682749,244.6666667,0,44.33333334,0
Ayounel el Atrous,AFRICA,0.02,16.66666667,-9.666666667,29.63641739,13.90216637,50.41766357,433.5999451,42.625,15.05099964,27.57400131,31.56700134,25.35549927,34.24950027,23.60283279,194,76,0,144.4257202,164,1,62,1
Ayr1,EUROPE,0.56,55.50595238,-4.668154762,9.006643295,6.362036203,37.60725423,398.9143835,18.39415281,1.476988241,16.91716416,7.176101361,10.29442326,14.11075815,4.489335256,986.9642857,113.4107143,52.125,25.90234828,322.4285714,163.3571429,210.4107143,270.7142857
Ayr2,AUSTRALIA,0.12,-19.5,147.3541667,23.78414583,10.01604128,52.19434548,324.1701889,31.64974976,12.46199989,19.18774891,27.1038332,20.12312508,27.2488327,19.30216646,1145,263.5000001,13,94.27946663,678.7500001,50.00000001,666.7500001,59.25000001
Ayutthaya,ASIA,0.78,14.40384615,100.5448718,27.9574585,9.701570511,59.24933272,158.0206017,35.78015401,19.40607673,16.37407728,27.96553832,26.06083298,29.70893537,25.77923129,1022,226.6153846,3.153846154,85.36388749,538.3846154,16.84615385,216.3846154,42.61538462
Az Aubayr,ASIA,0.76,30.42105263,47.66337719,24.67470013,15.06299501,39.43063159,897.5960613,44.40989565,6.20914463,38.20075156,14.95460539,34.98445024,34.98445024,13.06507058,139.6315789,29,0,92.95118011,80.78947368,0,0,77.69736842
Az Zahran,ASIA,1.756969221,26.35643036,50.12984316,26.28792761,11.15232945,37.33378702,721.8067871,41.26969562,11.39995176,29.86974385,17.87147768,33.33134492,34.55323256,16.98096932,78.17972847,21.34718878,0,104.2775118,53.73784634,0,0,39.39065756
Az Zarqa,ASIA,1.385480101,32.11106235,36.0481181,18.07711602,11.59774177,40.65158199,676.6322248,32.69472501,4.168744805,28.52597992,9.383298245,25.63896812,25.63896812,9.383298245,220.0644405,48.95441303,0,106.5908217,139.9624915,0,0,139.9624915
Az Zawiyah,AFRICA,0.58,32.81609195,12.65804598,19.89742785,9.935559767,40.06277006,564.2474681,32.24720508,7.459120931,24.7880838,14.44112572,26.24717068,26.62809181,12.92057973,243.2413793,62.68965517,0,95.57346831,145.5172414,2,8.879310344,139.5172414
Azare,AFRICA,0.25,11.73,10.16666667,26.59759331,15.10864006,57.26228867,287.8531982,39.09964066,12.71448029,26.38516037,26.34047989,24.82095985,30.33029312,22.98169373,737.8,266.72,0,141.3283466,573.4,0,144.68,0
Azogues,SOUTH AMERICA,0.719799825,-2.697879007,-78.9062471,13.12561139,11.47046058,85.47052862,51.16001433,20.08790292,6.666796944,13.42110586,13.51448748,12.45198706,13.52242724,12.34332261,862.6054653,105.9183121,48.1692159,24.88521249,289.6729702,157.6732483,288.5476574,171.5093163
Azul,SOUTH AMERICA,0.4,-36.74791667,-59.91666667,14.52333133,12.98210039,47.13966913,527.9253876,29.82605047,2.286399925,27.53965011,20.64929504,8.19440043,21.17094536,8.19440043,947.15,121,40.025,35.56434774,325,125.05,302,125.05
Babahoyo,SOUTH AMERICA,0.3,-1.75,-79.55833333,25.19915047,8.739216709,76.65577393,98.77291336,30.83950043,19.4387991,11.40070133,26.10003338,24.2227335,26.32336655,24.00035019,1812.7,438.6,4.3,114.5768822,1206.5,25.2,1150.4,27.5
Babanusa,AFRICA,0.14,11.35714286,27.75,28.59625598,14.47553526,58.91034862,233.5059989,40.44471414,15.87257113,24.57214274,27.97402409,26.30928503,31.74433354,25.94940431,481,126.4285714,0,124.2567259,347,0,33.42857143,0
Babati,AFRICA,0.05,-4.166666667,35.68333333,20.07412453,10.89975014,71.22077026,157.7942474,27.49920044,12.19540024,15.3038002,21.29463387,18.28219948,21.34623299,17.74560013,766.7999999,147.6,1.199999998,88.94352722,380.8,7.199999998,315.9999998,12.4
Babruysk,EUROPE,1.21,53.18595041,29.16253444,6.272333303,9.247731012,28.82240224,887.0026114,23.58947904,-8.495330582,32.08481029,17.01943018,-3.555789289,17.01943018,-4.660920167,623.0578512,89,31,34.53228722,237.5785124,101,237.5785124,107
